~Version Information Section
VERS.           2.0     :   CWLS log ASCII Standard -VERSION 2.0
WRAP.           NO      :   One line per depth step
#
~Well Information Section
#MNEM.UNIT     VALUE/NAME     DESCRIPTION
#--------     ------------     -----------------
STRT.M                        840.30                     : START DEPTH
STOP.M                        2267.00                    : STOP DEPTH
STEP.M                        0.100                      : STEP
STRT_TVD.M                    797.19                     : START TVD
STOP_TVD.M                    2013.28                    : STOP TVD
DEPTH_SCALE.                  MD (meters)                : DEPTH SCALE
NULL.                         -999.25                    : NULL VALUE
DATE.                         2014-12-22                 : DATE
JOBN.                         ORYX_DD11                  : JOB NUMBER
UWI.                          DD 11                      : UNIQUE WELL ID
API.                          DD 11                      : API NUMBER
COMP.                         ORYX Petroleum LTD.        : COMPANY
WELL.                         Damir Dagh-11              : WELL
FLD.                          Hawler                     : FIELD
LOC.                          Damir Dagh                 : LOCATION
CNTY.                         Erbil                      : COUNTY
STAT.                         Kurdistan                  : STATE
PROV.                         Kurdistan                  : PROVINCE
CTRY.                         Iraq                       : COUNTRY
well_Location.                Damir Dagh                 : WELL LOCATION
well_Latitude.                N36 12 11.328              : WELL LATITUDE
well_Longitude.               E43 43 57.3742             : WELL LONGITUDE
well_Section.                                            : SECTION
well_Township.                                           : TOWNSHIP
well_Range.                                              : RANGE
well_Datum.                   MSL                        : PERMANENT DEPTH DATUM
well_Elevation.               0                          : PERMANENT DEPTH ELEVATION
well_KBElevation.             456.3                      : KELLY BUSHING ELEVATION
well_DFElevation.             456.3                      : DRILL FLOOR ELEVATION
well_groundElevation.          450.8                      : GROUND/SEA FLOOR ELEVATION
MDF.                          KELLY BUSHING              : MWD DEPTH MEASURED FROM
surveySection_dTimStart.          25-Nov-2014                : MWD Start Date
surveySection_mdStart.          50                         : MWD Start Depth
surveySection_dTimEnd.                                     : MWD End Date
surveySection_mdEnd.                                     : MWD End Depth
wellbore_mdCurrent.           0.0                        : Total Depth
OS1.                          Downhole Vibration         : Other Services 1
OS2.                          DH Temp.                   : Other Services 2
OS3.                                                     : Other Services 3
OS4.                                                     : Other Services 4
nameOperator.                 EDC                        : Drilling Contractor
nameRig.                      EDC-22                     : Rig Name
typeRig.                      Land Rig                   : Rig Type
OCN1.                         Richard hesse              : Oil Company Name 1
OCN2.                         George Bagheri             : Oil Company Name 2
OCN3.                                                    : Oil Company Name 3
OCN4.                                                    : Oil Company Name 4
nameDirectionalCompany.          OilServ                    : Directional Company Name
DCN1.                         Graham Chalmers            : Directional Company Name 1
DCN2.                         Omid Mcaryan               : Directional Company Name 2
DCN3.                                                    : Directional Company Name 3
DCN4.                                                    : Directional Company Name 4
SRVC.                         OilServ                    : SERVICE COMPANY
SCN1.                         Eugene Kravtsov            : Service Company Name 1
SCN2.                         Astak George               : Service Company Name 2
SCN3.                         Waqas Ahmad Tehami         : Service Company Name 3
SCN4.                         RE'al                      : Service Company Name 4
dTimCreation.                 2014/12/22                 : DATE FILE CREATED
#
~Curve Information Section
#MNEM.UNIT         API CODE       Curve Description       
#----------        -----------    -------------------------------
DEPTH.M                       :  1       DEPTH
TVD.M                         :  2       TRUE VERTICAL DEPTH
GRCM.API/sec        :  3 GAMMA RAY BOREHOLE CORRECTED
ROP.m/hr        :  4 RATE OF PENETRATION
RPCECHM.ohm-m        :  5 RESISTIVITY PHASE DIFF. 2 MHZ LONG SPACING
RPCECSHM.ohm-m        :  6 RESISTIVITY PHASE DIFF. 2 MHZ SHORT SPACING
RPCECLM.ohm-m        :  7 RESISTIVITY PHASE DIFF. 400 KHZ LONG SPACING
RPCECSLM.ohm-m        :  8 RESISTIVITY PHASE DIFF. 400 KHZ SHORT SPACING
RACECSHM.ohm-m        :  9 RESISTIVITY ATTEN. 2 MHZ SHORT SPACING
RACECHM.ohm-m        :  10 RESISTIVITY ATTEN. 2 MHZ LONG SPACING
RACECLM.ohm-m        :  11 RESISTIVITY ATTEN. 400 KHZ LONG SPACING
RACECSLM.ohm-m        :  12 RESISTIVITY ATTEN. 400 KHZ SHORT SPACING
TRM.Celsius        :  13 RESISTIVITY COMPENSATION TEMPERATURE
~A
# ...
1702.60   1544.90   22.83   12.91   0.75   0.73   0.82   0.80   0.82   0.84   0.92   0.88   76.00
1702.70   1544.98   29.13   16.65   0.74   0.72   0.80   0.79   0.80   0.83   0.91   0.88   76.00
1702.80   1545.07   23.19   16.17   0.74   0.72   0.79   0.78   0.78   0.81   0.91   0.87   76.00
1702.90   1545.15   29.14   16.08   0.75   0.72   0.79   0.78   0.78   0.81   0.90   0.87   76.00
1703.00   1545.24   25.48   31.52   0.77   0.74   0.80   0.78   0.78   0.81   0.90   0.86   76.00
1703.10   1545.32   21.74   24.05   0.80   0.77   0.82   0.80   0.80   0.82   0.90   0.87   76.00
1703.20   1545.41   26.14   12.47   0.82   0.80   0.84   0.82   0.81   0.84   0.91   0.87   76.00
1703.30   1545.49   25.71   18.26   0.84   0.83   0.86   0.85   0.83   0.86   0.91   0.88   76.00
1703.40   1545.58   25.66   15.06   0.88   0.86   0.88   0.88   0.86   0.88   0.92   0.89   76.00
1703.50   1545.66   22.06   14.51   0.93   0.90   0.91   0.90   0.88   0.90   0.92   0.90   76.00
1703.60   1545.75   22.09   12.83   0.99   0.95   0.94   0.94   0.90   0.91   0.93   0.91   76.00
1703.70   1545.83   23.06   16.75   1.04   0.99   0.97   0.97   0.92   0.93   0.93   0.93   76.00
1703.80   1545.92   19.83   8.60   1.06   1.02   0.99   0.99   0.94   0.95   0.94   0.94   76.00
1703.90   1546.00   23.56   13.60   1.04   1.01   1.00   1.00   0.96   0.97   0.95   0.95   76.00
1704.00   1546.09   23.97   10.25   1.00   0.97   0.99   0.99   0.98   0.99   0.96   0.97   76.00
1704.10   1546.17   30.42   11.58   0.93   0.91   0.97   0.96   1.00   1.01   0.97   0.98   76.00
1704.20   1546.26   26.64   11.10   0.90   0.88   0.96   0.95   0.98   1.00   0.98   0.98   76.00
1704.30   1546.34   24.25   10.47   0.90   0.88   0.96   0.95   0.95   0.98   0.99   0.98   76.00
1704.40   1546.43   26.26   10.61   0.92   0.89   0.96   0.95   0.94   0.97   0.99   0.98   76.00
1704.50   1546.51   26.05   16.59   0.94   0.90   0.97   0.95   0.93   0.97   0.99   0.98   76.00
1704.60   1546.60   23.94   23.30   0.95   0.91   0.98   0.96   0.94   0.98   1.00   0.99   76.00
1704.70   1546.68   24.71   19.13   0.95   0.90   0.98   0.96   0.95   0.99   1.01   0.99   76.00
1704.80   1546.77   22.86   28.42   0.94   0.90   0.98   0.96   0.96   1.00   1.01   1.00   76.00
1704.90   1546.85   21.57   16.80   0.94   0.91   0.98   0.96   0.96   0.99   1.02   1.01   76.00
1705.00   1546.94   24.40   15.09   0.95   0.92   0.99   0.96   0.94   0.98   1.03   1.01   76.00
1705.10   1547.02   22.33   21.35   0.91   0.87   0.98   0.95   0.96   1.00   1.07   1.04   76.00
1705.20   1547.11   22.86   28.20   0.94   0.90   1.00   0.97   0.98   1.03   1.08   1.05   76.00
1705.30   1547.19   22.04   18.22   1.04   1.00   1.05   1.03   0.97   1.03   1.10   1.08   76.00
1705.40   1547.28   20.55   22.91   1.09   1.04   1.08   1.05   0.97   1.03   1.11   1.08   76.00
1705.50   1547.36   24.56   10.24   1.11   1.04   1.10   1.07   1.00   1.05   1.13   1.10   76.00
1705.60   1547.45   25.20   28.82   1.12   1.03   1.13   1.08   1.05   1.12   1.16   1.13   76.00
1705.70   1547.53   20.98   23.49   1.10   1.04   1.15   1.10   1.15   1.22   1.19   1.17   76.00
1705.80   1547.62   22.20   35.32   1.08   1.03   1.16   1.12   1.23   1.29   1.22   1.20   76.50
1705.90   1547.70   22.98   18.46   1.07   1.03   1.17   1.14   1.28   1.32   1.25   1.24   76.99
1706.00   1547.79   27.78   37.33   1.07   1.03   1.19   1.16   1.28   1.32   1.29   1.27   76.99
1706.10   1547.87   25.72   16.32   1.07   1.03   1.21   1.18   1.25   1.29   1.31   1.30   76.99
1706.20   1547.96   25.37   25.75   1.09   1.07   1.22   1.21   1.25   1.29   1.33   1.33   76.99
1706.30   1548.04   23.76   35.84   1.15   1.12   1.26   1.24   1.25   1.29   1.35   1.35   76.99
1706.40   1548.13   31.63   16.99   1.29   1.26   1.34   1.32   1.26   1.30   1.38   1.37   76.99
1706.50   1548.21   32.48   8.28   1.45   1.46   1.42   1.44   1.25   1.29   1.39   1.40   76.99
1706.60   1548.30   28.33   23.19   1.65   1.63   1.51   1.51   1.28   1.31   1.40   1.40   76.99
1706.70   1548.38   29.08   16.49   1.91   1.86   1.63   1.64   1.36   1.36   1.42   1.45   76.99
1706.80   1548.47   29.44   18.54   2.11   2.00   1.73   1.75   1.50   1.48   1.44   1.48   76.99
1706.90   1548.55   27.37   14.43   2.06   1.96   1.78   1.79   1.71   1.65   1.47   1.52   76.99
1707.00   1548.64   30.96   12.46   1.89   1.81   1.74   1.75   1.78   1.74   1.49   1.55   76.99
1707.10   1548.72   29.14   5.79   1.75   1.70   1.72   1.73   1.79   1.76   1.50   1.56   76.99
1707.20   1548.81   26.48   38.92   1.66   1.66   1.69   1.71   1.73   1.73   1.50   1.56   76.99
1707.30   1548.89   27.48   20.03   1.53   1.53   1.62   1.63   1.68   1.73   1.50   1.55   76.99
1707.40   1548.98   27.98   14.99   1.47   1.45   1.58   1.58   1.66   1.71   1.49   1.53   76.99
1707.50   1549.06   23.78   12.78   1.37   1.30   1.51   1.48   1.60   1.63   1.46   1.49   76.99
1707.60   1549.15   26.56   15.64   1.23   1.13   1.40   1.34   1.45   1.49   1.41   1.43   76.99
1707.70   1549.23   22.31   15.16   1.16   1.08   1.33   1.27   1.34   1.40   1.37   1.37   76.99
1707.80   1549.32   24.55   31.97   1.14   1.06   1.29   1.24   1.27   1.33   1.34   1.33   76.99
1707.90   1549.40   26.15   36.75   1.09   1.02   1.25   1.19   1.22   1.28   1.30   1.30   76.99
1708.00   1549.49   27.64   15.78   0.99   0.94   1.15   1.10   1.14   1.20   1.25   1.23   76.99
1708.10   1549.57   25.54   28.21   0.95   0.91   1.09   1.05   1.07   1.13   1.21   1.17   76.99
1708.20   1549.66   25.61   38.27   0.96   0.92   1.07   1.02   1.02   1.09   1.17   1.13   76.99
1708.30   1549.74   23.24   11.30   0.96   0.91   1.03   0.98   0.98   1.04   1.11   1.06   76.99
1708.40   1549.83   22.43   15.65   0.96   0.91   1.02   0.97   0.97   1.03   1.09   1.05   76.99
1708.50   1549.91   26.93   17.83   0.93   0.89   0.98   0.94   0.94   1.00   1.05   1.01   76.99
1708.60   1550.00   23.33   40.10   0.89   0.85   0.93   0.89   0.89   0.95   1.01   0.96   76.99
1708.70   1550.08   19.96   27.39   0.86   0.82   0.91   0.87   0.89   0.93   0.99   0.94   76.99
1708.80   1550.17   23.37   22.50   0.78   0.77   0.85   0.83   0.86   0.90   0.96   0.92   76.99
1708.90   1550.25   22.80   21.41   0.76   0.75   0.83   0.81   0.84   0.87   0.95   0.91   76.99
1709.00   1550.34   25.70   20.94   0.75   0.73   0.81   0.80   0.81   0.83   0.92   0.88   76.99
1709.10   1550.42   22.01   23.06   0.77   0.75   0.81   0.80   0.79   0.81   0.90   0.87   76.99
1709.20   1550.51   28.06   24.35   0.80   0.77   0.81   0.80   0.79   0.81   0.89   0.86   76.99
1709.30   1550.59   23.79   16.82   0.82   0.80   0.83   0.82   0.80   0.82   0.88   0.85   76.99
1709.40   1550.68   24.61   21.79   0.85   0.81   0.84   0.82   0.80   0.83   0.88   0.84   76.99
1709.50   1550.76   24.05   15.35   0.87   0.84   0.86   0.84   0.81   0.84   0.88   0.85   76.99
1709.60   1550.85   17.41   23.16   0.86   0.84   0.86   0.85   0.82   0.85   0.88   0.85   76.99
1709.70   1550.93   20.26   18.54   0.85   0.83   0.86   0.85   0.83   0.85   0.88   0.86   76.99
1709.80   1551.01   19.97   13.07   0.85   0.83   0.86   0.86   0.84   0.85   0.88   0.86   76.99
1709.90   1551.10   24.37   21.09   0.85   0.84   0.87   0.86   0.84   0.86   0.89   0.87   76.99
1710.00   1551.18   22.95   9.34   0.88   0.86   0.88   0.88   0.85   0.86   0.90   0.88   76.99
1710.10   1551.27   22.93   14.37   0.89   0.87   0.90   0.89   0.86   0.87   0.90   0.89   76.99
1710.20   1551.35   23.59   24.50   0.90   0.88   0.91   0.91   0.87   0.89   0.91   0.90   76.99
1710.30   1551.44   22.17   17.92   0.92   0.89   0.92   0.92   0.89   0.91   0.92   0.91   76.99
1710.40   1551.52   22.39   18.78   0.94   0.91   0.93   0.93   0.89   0.91   0.93   0.92   76.99
1710.50   1551.61   24.52   17.12   0.98   0.95   0.96   0.95   0.90   0.92   0.94   0.93   76.99
1710.60   1551.69   24.12   15.25   1.01   0.98   0.98   0.98   0.92   0.93   0.94   0.94   76.99
1710.70   1551.78   21.85   14.01   1.02   1.00   0.99   0.99   0.94   0.95   0.95   0.95   76.99
