~Version Information Section
VERS.           2.0     :   CWLS log ASCII Standard -VERSION 2.0
WRAP.           NO      :   One line per depth step
#
~Well Information Section
#MNEM.UNIT     VALUE/NAME     DESCRIPTION
#--------     ------------     -----------------
STRT.M                        840.30                     : START DEPTH
STOP.M                        2267.00                    : STOP DEPTH
STEP.M                        0.100                      : STEP
STRT_TVD.M                    797.19                     : START TVD
STOP_TVD.M                    2013.28                    : STOP TVD
DEPTH_SCALE.                  MD (meters)                : DEPTH SCALE
NULL.                         -999.25                    : NULL VALUE
DATE.                         2014-12-22                 : DATE
JOBN.                         ORYX_DD11                  : JOB NUMBER
UWI.                          DD 11                      : UNIQUE WELL ID
API.                          DD 11                      : API NUMBER
COMP.                         ORYX Petroleum LTD.        : COMPANY
WELL.                         Damir Dagh-11              : WELL
FLD.                          Hawler                     : FIELD
LOC.                          Damir Dagh                 : LOCATION
CNTY.                         Erbil                      : COUNTY
STAT.                         Kurdistan                  : STATE
PROV.                         Kurdistan                  : PROVINCE
CTRY.                         Iraq                       : COUNTRY
well_Location.                Damir Dagh                 : WELL LOCATION
well_Latitude.                N36 12 11.328              : WELL LATITUDE
well_Longitude.               E43 43 57.3742             : WELL LONGITUDE
well_Section.                                            : SECTION
well_Township.                                           : TOWNSHIP
well_Range.                                              : RANGE
well_Datum.                   MSL                        : PERMANENT DEPTH DATUM
well_Elevation.               0                          : PERMANENT DEPTH ELEVATION
well_KBElevation.             456.3                      : KELLY BUSHING ELEVATION
well_DFElevation.             456.3                      : DRILL FLOOR ELEVATION
well_groundElevation.          450.8                      : GROUND/SEA FLOOR ELEVATION
MDF.                          KELLY BUSHING              : MWD DEPTH MEASURED FROM
surveySection_dTimStart.          25-Nov-2014                : MWD Start Date
surveySection_mdStart.          50                         : MWD Start Depth
surveySection_dTimEnd.                                     : MWD End Date
surveySection_mdEnd.                                     : MWD End Depth
wellbore_mdCurrent.           0.0                        : Total Depth
OS1.                          Downhole Vibration         : Other Services 1
OS2.                          DH Temp.                   : Other Services 2
OS3.                                                     : Other Services 3
OS4.                                                     : Other Services 4
nameOperator.                 EDC                        : Drilling Contractor
nameRig.                      EDC-22                     : Rig Name
typeRig.                      Land Rig                   : Rig Type
OCN1.                         Richard hesse              : Oil Company Name 1
OCN2.                         George Bagheri             : Oil Company Name 2
OCN3.                                                    : Oil Company Name 3
OCN4.                                                    : Oil Company Name 4
nameDirectionalCompany.          OilServ                    : Directional Company Name
DCN1.                         Graham Chalmers            : Directional Company Name 1
DCN2.                         Omid Mcaryan               : Directional Company Name 2
DCN3.                                                    : Directional Company Name 3
DCN4.                                                    : Directional Company Name 4
SRVC.                         OilServ                    : SERVICE COMPANY
SCN1.                         Eugene Kravtsov            : Service Company Name 1
SCN2.                         Astak George               : Service Company Name 2
SCN3.                         Waqas Ahmad Tehami         : Service Company Name 3
SCN4.                         RE'al                      : Service Company Name 4
dTimCreation.                 2014/12/22                 : DATE FILE CREATED
#
~Curve Information Section
#MNEM.UNIT         API CODE       Curve Description       
#----------        -----------    -------------------------------
DEPTH.M                       :  1       DEPTH
TVD.M                         :  2       TRUE VERTICAL DEPTH
GRCM.API/sec        :  3 GAMMA RAY BOREHOLE CORRECTED
ROP.m/hr        :  4 RATE OF PENETRATION
RPCECHM.ohm-m        :  5 RESISTIVITY PHASE DIFF. 2 MHZ LONG SPACING
RPCECSHM.ohm-m        :  6 RESISTIVITY PHASE DIFF. 2 MHZ SHORT SPACING
RPCECLM.ohm-m        :  7 RESISTIVITY PHASE DIFF. 400 KHZ LONG SPACING
RPCECSLM.ohm-m        :  8 RESISTIVITY PHASE DIFF. 400 KHZ SHORT SPACING
RACECSHM.ohm-m        :  9 RESISTIVITY ATTEN. 2 MHZ SHORT SPACING
RACECHM.ohm-m        :  10 RESISTIVITY ATTEN. 2 MHZ LONG SPACING
RACECLM.ohm-m        :  11 RESISTIVITY ATTEN. 400 KHZ LONG SPACING
RACECSLM.ohm-m        :  12 RESISTIVITY ATTEN. 400 KHZ SHORT SPACING
TRM.Celsius        :  13 RESISTIVITY COMPENSATION TEMPERATURE
~A
# ...
2246.70   1996.78   44.62   4.27   146.34   149.14   164.46   150.44   95.69   98.75   62.10   29.44   71.99
2246.80   1996.86   43.06   3.02   142.10   134.73   162.88   155.01   95.65   98.73   62.10   29.44   71.99
2246.90   1996.94   41.50   4.42   135.16   138.26   156.94   143.76   95.61   98.72   62.10   29.43   71.99
2247.00   1997.02   39.54   5.68   131.02   121.67   148.63   131.65   95.57   98.70   62.10   29.43   71.99
2247.10   1997.10   38.24   4.27   132.57   111.64   145.51   127.66   95.53   98.69   62.10   29.42   71.99
2247.20   1997.19   40.51   0.63   127.15   109.50   143.49   124.68   95.48   98.67   62.10   29.42   71.99
2247.30   1997.27   42.79   56.65   126.99   113.60   142.02   124.03   95.44   98.66   62.10   29.42   71.99
2247.40   1997.35   45.07   22.83   122.96   113.86   140.34   125.28   95.40   98.64   62.10   29.41   71.99
2247.50   1997.43   47.34   5.95   122.76   111.63   137.96   121.34   95.36   98.63   62.10   29.41   71.99
2247.60   1997.51   49.62   6.99   120.13   108.34   131.83   115.39   95.32   98.62   62.10   29.40   71.99
2247.70   1997.59   51.89   6.08   116.27   103.84   124.65   110.13   95.28   98.60   62.10   29.40   71.99
2247.80   1997.67   54.17   5.71   111.93   100.79   127.05   111.51   95.24   98.59   62.11   29.40   71.99
2247.90   1997.75   55.50   8.87   112.99   99.40   125.03   108.75   95.20   98.57   62.11   29.39   71.99
2248.00   1997.84   56.18   6.64   110.65   97.70   122.79   107.01   95.16   98.56   62.11   29.39   71.99
2248.10   1997.92   56.85   4.46   112.54   97.57   124.42   105.64   95.11   98.54   62.11   29.38   71.99
2248.20   1998.00   57.53   4.36   112.95   98.96   124.76   110.83   95.07   98.53   62.11   29.38   71.99
2248.30   1998.08   58.21   9.17   114.98   104.79   123.87   116.07   95.03   98.51   62.11   29.37   71.99
2248.40   1998.16   58.88   8.74   116.33   107.93   124.81   116.87   94.99   98.50   62.11   29.37   71.99
2248.50   1998.24   59.56   10.79   115.64   109.86   126.67   116.62   94.95   98.48   62.11   29.37   71.99
2248.60   1998.32   60.23   6.21   116.89   113.80   125.50   122.97   94.91   98.47   62.11   29.36   71.99
2248.70   1998.40   60.91   6.20   120.92   116.87   123.26   121.65   94.87   98.45   62.11   29.36   71.99
2248.80   1998.49   61.59   5.14   115.56   114.45   122.29   117.86   95.83   98.44   62.11   29.35   71.99
2248.90   1998.57   62.26   4.48   110.67   106.91   117.30   110.81   93.35   98.43   62.11   29.35   71.99
2249.00   1998.65   62.94   4.54   105.44   98.50   111.18   102.38   89.80   98.41   62.11   29.35   71.99
2249.10   1998.73   63.62   8.20   101.81   91.81   108.26   98.30   86.90   98.40   62.11   29.34   71.99
2249.20   1998.81   -999.25   4.61   95.12   85.92   101.92   92.61   88.84   98.38   62.11   29.34   71.99
2249.30   1998.89   -999.25   6.19   92.36   84.96   98.37   88.52   91.79   98.37   62.11   29.33   71.99
2249.40   1998.97   -999.25   5.86   91.86   83.94   96.47   88.84   92.26   98.35   62.11   29.33   71.99
2249.50   1999.06   -999.25   6.76   88.71   79.78   92.84   84.39   92.74   98.34   62.11   29.33   71.99
2249.60   1999.14   -999.25   4.65   87.33   80.01   90.43   82.24   94.96   98.32   62.11   29.32   71.99
2249.70   1999.22   -999.25   7.53   85.21   76.64   88.04   84.73   97.43   95.29   62.11   29.32   71.99
2249.80   1999.30   -999.25   7.15   81.86   76.50   86.01   79.73   88.75   88.40   62.11   29.31   71.99
2249.90   1999.38   -999.25   7.64   81.54   72.67   82.37   77.99   74.29   81.78   62.11   29.31   71.99
2250.00   1999.46   -999.25   7.52   79.92   74.16   82.28   76.51   73.67   78.67   62.11   29.31   71.99
2250.10   1999.54   -999.25   5.54   78.60   72.08   79.27   74.54   64.48   72.43   62.11   29.30   71.99
2250.20   1999.62   -999.25   5.09   76.59   73.32   76.72   74.25   59.56   65.30   62.11   29.30   71.99
2250.30   1999.71   -999.25   5.74   77.20   75.80   75.72   74.98   57.44   63.16   62.11   29.29   71.99
2250.40   1999.79   -999.25   4.71   78.31   78.22   75.23   77.33   52.90   60.11   62.11   29.29   71.99
2250.50   1999.87   -999.25   4.90   78.44   80.10   73.58   80.13   53.09   57.89   62.11   29.29   71.99
2250.60   1999.95   -999.25   3.57   79.46   80.02   71.81   78.65   50.22   56.35   62.11   29.28   71.99
2250.70   2000.03   -999.25   3.21   75.40   79.33   72.41   80.62   46.80   52.89   62.11   29.28   71.99
2250.80   2000.11   -999.25   14.91   69.74   74.84   66.75   69.65   44.81   47.94   62.11   29.27   71.99
2250.90   2000.19   -999.25   8.07   68.03   73.94   63.17   67.58   43.55   47.30   62.11   29.27   71.99
2251.00   2000.27   -999.25   14.48   64.55   66.56   60.67   64.89   40.16   45.01   62.11   29.27   71.99
2251.10   2000.36   -999.25   2.69   60.50   62.06   57.24   60.44   38.46   42.84   62.11   29.26   71.99
2251.20   2000.44   -999.25   4.48   55.24   56.79   52.74   55.31   36.28   40.93   62.11   29.26   71.99
2251.30   2000.52   -999.25   4.83   52.29   52.02   49.85   52.01   35.56   39.78   62.11   29.25   71.99
2251.40   2000.60   -999.25   5.63   48.59   48.20   47.21   48.59   35.09   38.79   62.11   29.25   71.99
2251.50   2000.68   -999.25   4.52   40.58   38.14   40.65   39.97   34.01   36.28   62.11   29.25   71.99
2251.60   2000.76   -999.25   6.76   37.95   35.50   38.69   36.47   33.52   35.74   62.11   29.24   71.99
2251.70   2000.84   -999.25   16.51   31.32   28.05   33.70   30.37   32.37   33.67   62.11   29.24   71.99
2251.80   2000.93   -999.25   6.34   28.60   25.50   31.08   28.17   32.35   33.38   62.11   29.23   71.99
2251.90   2001.01   -999.25   25.31   25.28   22.54   28.30   25.46   32.75   33.01   62.11   29.23   71.99
2252.00   2001.09   -999.25   13.69   21.83   19.41   25.29   22.43   31.37   31.99   62.11   29.23   71.99
2252.10   2001.17   -999.25   9.19   20.66   18.27   24.07   21.48   29.41   30.64   62.11   29.22   71.99
2252.20   2001.25   -999.25   9.36   20.32   18.48   23.21   21.22   26.24   27.08   62.11   29.22   71.99
2252.30   2001.33   -999.25   6.27   21.29   19.66   23.68   21.99   25.04   26.00   62.12   28.84   71.99
2252.40   2001.41   -999.25   18.39   22.43   21.17   24.20   23.13   24.11   24.80   62.12   27.00   71.99
2252.50   2001.49   -999.25   5.36   23.12   22.45   24.29   23.73   22.93   23.56   62.12   25.90   71.99
2252.60   2001.58   -999.25   8.18   23.47   23.34   24.15   24.13   21.93   22.54   59.20   25.43   71.99
2252.70   2001.66   -999.25   8.39   23.69   24.11   24.00   24.30   20.87   21.22   49.00   24.16   71.99
2252.80   2001.74   -999.25   5.22   23.75   24.19   23.59   24.42   19.60   20.23   45.34   22.63   71.99
2252.90   2001.82   -999.25   6.28   23.51   24.07   22.92   23.78   18.79   19.06   40.39   21.65   71.99
2253.00   2001.90   -999.25   4.68   22.77   22.99   21.93   22.73   17.64   18.21   38.16   21.12   71.99
2253.10   2001.98   -999.25   9.13   21.50   21.65   20.87   21.37   17.05   17.61   34.38   20.48   71.99
2253.20   2002.06   -999.25   8.85   19.61   19.40   19.40   19.68   16.42   17.05   33.87   20.74   71.99
2253.30   2002.14   -999.25   12.15   -999.25   -999.25   -999.25   -999.25   -999.25   -999.25   -999.25   -999.25   -999.25
2253.40   2002.23   -999.25   11.63   -999.25   -999.25   -999.25   -999.25   -999.25   -999.25   -999.25   -999.25   -999.25
2253.50   2002.31   -999.25   17.15   -999.25   -999.25   -999.25   -999.25   -999.25   -999.25   -999.25   -999.25   -999.25
2253.60   2002.39   -999.25   9.01   -999.25   -999.25   -999.25   -999.25   -999.25   -999.25   -999.25   -999.25   -999.25
2253.70   2002.47   -999.25   12.67   -999.25   -999.25   -999.25   -999.25   -999.25   -999.25   -999.25   -999.25   -999.25
2253.80   2002.55   -999.25   9.69   -999.25   -999.25   -999.25   -999.25   -999.25   -999.25   -999.25   -999.25   -999.25
2253.90   2002.63   -999.25   28.19   -999.25   -999.25   -999.25   -999.25   -999.25   -999.25   -999.25   -999.25   -999.25
2254.00   2002.71   -999.25   10.12   -999.25   -999.25   -999.25   -999.25   -999.25   -999.25   -999.25   -999.25   -999.25
