~Version Information Section
VERS.           2.0     :   CWLS log ASCII Standard -VERSION 2.0
WRAP.           NO      :   One line per depth step
#
~Well Information Section
#MNEM.UNIT     VALUE/NAME     DESCRIPTION
#--------     ------------     -----------------
STRT.M                        840.30                     : START DEPTH
STOP.M                        2267.00                    : STOP DEPTH
STEP.M                        0.100                      : STEP
STRT_TVD.M                    797.19                     : START TVD
STOP_TVD.M                    2013.28                    : STOP TVD
DEPTH_SCALE.                  MD (meters)                : DEPTH SCALE
NULL.                         -999.25                    : NULL VALUE
DATE.                         2014-12-22                 : DATE
JOBN.                         ORYX_DD11                  : JOB NUMBER
UWI.                          DD 11                      : UNIQUE WELL ID
API.                          DD 11                      : API NUMBER
COMP.                         ORYX Petroleum LTD.        : COMPANY
WELL.                         Damir Dagh-11              : WELL
FLD.                          Hawler                     : FIELD
LOC.                          Damir Dagh                 : LOCATION
CNTY.                         Erbil                      : COUNTY
STAT.                         Kurdistan                  : STATE
PROV.                         Kurdistan                  : PROVINCE
CTRY.                         Iraq                       : COUNTRY
well_Location.                Damir Dagh                 : WELL LOCATION
well_Latitude.                N36 12 11.328              : WELL LATITUDE
well_Longitude.               E43 43 57.3742             : WELL LONGITUDE
well_Section.                                            : SECTION
well_Township.                                           : TOWNSHIP
well_Range.                                              : RANGE
well_Datum.                   MSL                        : PERMANENT DEPTH DATUM
well_Elevation.               0                          : PERMANENT DEPTH ELEVATION
well_KBElevation.             456.3                      : KELLY BUSHING ELEVATION
well_DFElevation.             456.3                      : DRILL FLOOR ELEVATION
well_groundElevation.          450.8                      : GROUND/SEA FLOOR ELEVATION
MDF.                          KELLY BUSHING              : MWD DEPTH MEASURED FROM
surveySection_dTimStart.          25-Nov-2014                : MWD Start Date
surveySection_mdStart.          50                         : MWD Start Depth
surveySection_dTimEnd.                                     : MWD End Date
surveySection_mdEnd.                                     : MWD End Depth
wellbore_mdCurrent.           0.0                        : Total Depth
OS1.                          Downhole Vibration         : Other Services 1
OS2.                          DH Temp.                   : Other Services 2
OS3.                                                     : Other Services 3
OS4.                                                     : Other Services 4
nameOperator.                 EDC                        : Drilling Contractor
nameRig.                      EDC-22                     : Rig Name
typeRig.                      Land Rig                   : Rig Type
OCN1.                         Richard hesse              : Oil Company Name 1
OCN2.                         George Bagheri             : Oil Company Name 2
OCN3.                                                    : Oil Company Name 3
OCN4.                                                    : Oil Company Name 4
nameDirectionalCompany.          OilServ                    : Directional Company Name
DCN1.                         Graham Chalmers            : Directional Company Name 1
DCN2.                         Omid Mcaryan               : Directional Company Name 2
DCN3.                                                    : Directional Company Name 3
DCN4.                                                    : Directional Company Name 4
SRVC.                         OilServ                    : SERVICE COMPANY
SCN1.                         Eugene Kravtsov            : Service Company Name 1
SCN2.                         Astak George               : Service Company Name 2
SCN3.                         Waqas Ahmad Tehami         : Service Company Name 3
SCN4.                         RE'al                      : Service Company Name 4
dTimCreation.                 2014/12/22                 : DATE FILE CREATED
#
~Curve Information Section
#MNEM.UNIT         API CODE       Curve Description       
#----------        -----------    -------------------------------
DEPTH.M                       :  1       DEPTH
TVD.M                         :  2       TRUE VERTICAL DEPTH
GRCM.API/sec        :  3 GAMMA RAY BOREHOLE CORRECTED
ROP.m/hr        :  4 RATE OF PENETRATION
RPCECHM.ohm-m        :  5 RESISTIVITY PHASE DIFF. 2 MHZ LONG SPACING
RPCECSHM.ohm-m        :  6 RESISTIVITY PHASE DIFF. 2 MHZ SHORT SPACING
RPCECLM.ohm-m        :  7 RESISTIVITY PHASE DIFF. 400 KHZ LONG SPACING
RPCECSLM.ohm-m        :  8 RESISTIVITY PHASE DIFF. 400 KHZ SHORT SPACING
RACECSHM.ohm-m        :  9 RESISTIVITY ATTEN. 2 MHZ SHORT SPACING
RACECHM.ohm-m        :  10 RESISTIVITY ATTEN. 2 MHZ LONG SPACING
RACECLM.ohm-m        :  11 RESISTIVITY ATTEN. 400 KHZ LONG SPACING
RACECSLM.ohm-m        :  12 RESISTIVITY ATTEN. 400 KHZ SHORT SPACING
TRM.Celsius        :  13 RESISTIVITY COMPENSATION TEMPERATURE
~A
# ...
1226.30   1131.12   21.34   13.75   3.23   3.03   3.41   3.22   3.08   3.33   3.20   3.06   73.00
1226.40   1131.20   21.62   9.99   3.36   3.13   3.50   3.32   3.24   3.41   3.25   3.11   72.04
1226.50   1131.29   19.75   12.55   3.48   3.24   3.62   3.42   3.35   3.54   3.32   3.19   73.00
1226.60   1131.38   20.89   16.81   3.61   3.42   3.73   3.56   3.40   3.57   3.36   3.23   73.00
1226.70   1131.46   21.92   12.15   3.84   3.61   3.86   3.70   3.45   3.63   3.40   3.28   73.00
1226.80   1131.55   21.71   12.89   4.01   3.78   4.00   3.82   3.47   3.66   3.44   3.31   73.00
1226.90   1131.64   20.77   16.41   4.30   4.13   4.13   4.05   3.55   3.78   3.47   3.38   73.00
1227.00   1131.72   20.63   11.26   4.45   4.26   4.26   4.15   3.68   3.80   3.51   3.41   73.00
1227.10   1131.81   23.30   13.56   4.59   4.41   4.36   4.31   3.93   3.95   3.54   3.50   73.00
1227.20   1131.90   23.05   10.91   4.72   4.47   4.46   4.39   4.02   4.08   3.59   3.54   73.00
1227.30   1131.98   23.81   12.33   4.72   4.46   4.51   4.41   4.19   4.16   3.61   3.55   73.00
1227.40   1132.07   22.13   13.78   4.65   4.52   4.50   4.46   4.22   4.25   3.62   3.60   73.00
1227.50   1132.15   23.55   13.70   4.63   4.42   4.48   4.45   4.28   4.22   3.63   3.61   73.00
1227.60   1132.24   22.28   15.29   4.52   4.34   4.49   4.43   4.22   4.26   3.63   3.61   73.00
1227.70   1132.33   23.53   10.22   4.53   4.29   4.43   4.38   4.17   4.20   3.62   3.61   73.00
1227.80   1132.41   24.49   19.20   4.42   4.23   4.41   4.31   4.10   4.11   3.60   3.56   73.00
1227.90   1132.50   21.43   12.27   4.46   4.28   4.38   4.25   4.03   3.97   3.57   3.52   73.00
1228.00   1132.59   21.89   13.58   4.38   4.30   4.30   4.30   3.86   4.00   3.51   3.51   73.00
1228.10   1132.67   22.21   12.81   4.34   4.24   4.24   4.18   3.84   3.91   3.48   3.43   73.00
1228.20   1132.76   17.86   13.64   4.25   4.16   4.13   4.14   3.79   3.90   3.43   3.43   73.00
1228.30   1132.85   18.95   13.96   4.09   3.96   4.07   3.96   3.74   3.81   3.40   3.32   73.00
1228.40   1132.93   19.93   10.88   3.92   3.79   3.91   3.87   3.64   3.74   3.34   3.30   73.00
1228.50   1133.02   18.42   11.21   3.77   3.59   3.81   3.70   3.52   3.65   3.29   3.21   73.00
1228.60   1133.10   15.83   11.20   3.64   3.49   3.69   3.60   3.43   3.54   3.21   3.16   73.00
1228.70   1133.19   17.73   13.81   3.53   3.36   3.58   3.44   3.20   3.36   3.13   3.04   73.00
1228.80   1133.28   16.52   13.33   3.37   3.23   3.42   3.27   3.02   3.16   3.04   2.92   73.00
1228.90   1133.36   16.86   12.01   3.13   2.96   3.24   3.09   2.84   3.05   2.97   2.85   73.00
1229.00   1133.45   18.54   14.06   2.90   2.77   3.09   2.92   2.79   2.97   2.92   2.79   73.00
1229.10   1133.54   14.46   15.87   2.71   2.56   2.94   2.77   2.69   2.87   2.85   2.71   73.00
1229.20   1133.62   16.96   11.53   2.58   2.46   2.82   2.67   2.60   2.75   2.78   2.64   73.00
1229.30   1133.71   17.52   13.36   2.56   2.47   2.77   2.64   2.55   2.74   2.73   2.60   73.00
1229.40   1133.80   18.46   15.09   2.53   2.43   2.74   2.61   2.51   2.66   2.68   2.56   73.00
1229.50   1133.88   18.15   16.06   2.51   2.40   2.67   2.56   2.52   2.64   2.62   2.50   73.00
1229.60   1133.97   17.83   20.78   2.47   2.34   2.62   2.49   2.45   2.59   2.56   2.44   73.00
1229.70   1134.06   15.81   14.88   2.46   2.33   2.58   2.44   2.38   2.51   2.51   2.38   73.00
1229.80   1134.14   19.04   19.42   2.49   2.34   2.55   2.41   2.30   2.44   2.46   2.32   73.00
1229.90   1134.23   15.31   15.71   2.46   2.34   2.51   2.37   2.25   2.37   2.41   2.27   73.00
1230.00   1134.31   18.58   14.02   2.44   2.33   2.45   2.33   2.24   2.31   2.36   2.23   73.00
1230.10   1134.40   18.91   20.18   2.36   2.27   2.39   2.30   2.18   2.28   2.32   2.21   73.00
1230.20   1134.49   18.95   12.12   2.26   2.16   2.32   2.21   2.13   2.23   2.30   2.16   73.00
1230.30   1134.57   20.40   23.14   2.13   2.03   2.25   2.15   2.10   2.23   2.28   2.16   73.00
1230.40   1134.66   19.68   17.59   2.03   1.95   2.19   2.08   2.07   2.21   2.27   2.12   73.00
1230.50   1134.75   22.89   22.68   1.99   1.89   2.16   2.04   2.03   2.19   2.25   2.11   73.00
1230.60   1134.83   19.92   15.36   1.96   1.86   2.14   2.01   2.02   2.14   2.24   2.09   73.00
1230.70   1134.92   22.08   22.72   1.99   1.87   2.14   2.02   2.02   2.14   2.24   2.10   73.00
1230.80   1135.01   16.55   19.91   2.03   1.90   2.17   2.03   1.98   2.13   2.24   2.09   73.00
1230.90   1135.09   19.09   19.78   2.05   1.93   2.18   2.04   1.97   2.12   2.24   2.09   73.00
1231.00   1135.18   20.98   28.51   2.07   1.92   2.19   2.04   1.96   2.16   2.25   2.10   73.00
1231.10   1135.27   21.81   20.01   2.06   1.90   2.22   2.04   1.95   2.15   2.27   2.11   73.00
1231.20   1135.35   19.74   33.82   2.10   1.95   2.25   2.08   1.97   2.17   2.28   2.14   73.00
1231.30   1135.44   23.08   19.89   2.14   2.01   2.29   2.13   2.04   2.21   2.30   2.16   73.00
1231.40   1135.52   21.57   8.36   2.18   2.04   2.33   2.17   2.04   2.25   2.32   2.20   73.00
1231.50   1135.61   19.59   15.66   2.18   2.04   2.34   2.18   2.05   2.26   2.33   2.21   73.00
1231.60   1135.70   19.75   18.50   2.19   2.08   2.36   2.21   2.13   2.28   2.34   2.21   73.00
1231.70   1135.78   18.53   31.91   2.29   2.19   2.44   2.32   2.25   2.38   2.37   2.28   73.00
1231.80   1135.87   19.05   12.72   2.45   2.34   2.55   2.42   2.35   2.47   2.41   2.31   73.00
1231.90   1135.96   19.58   27.34   2.59   2.46   2.64   2.55   2.43   2.54   2.42   2.36   73.00
1232.00   1136.04   20.10   22.64   2.84   2.67   2.80   2.69   2.50   2.61   2.45   2.41   73.00
1232.10   1136.13   20.63   10.41   3.10   2.95   2.93   2.86   2.58   2.65   2.47   2.45   73.00
1232.20   1136.22   20.56   22.60   3.43   3.30   3.10   3.10   2.69   2.72   2.49   2.50   73.00
1232.30   1136.30   20.41   12.92   3.76   3.65   3.27   3.28   2.85   2.80   2.52   2.54   73.00
1232.40   1136.39   20.35   16.57   3.90   3.75   3.35   3.40   2.93   2.90   2.53   2.58   73.00
1232.50   1136.48   20.16   9.50   3.89   3.77   3.39   3.43   3.09   2.98   2.54   2.61   73.00
1232.60   1136.56   19.39   11.77   3.79   3.67   3.37   3.42   3.18   3.07   2.55   2.61   73.00
1232.70   1136.65   22.95   14.90   3.68   3.55   3.34   3.40   3.15   3.15   2.55   2.64   73.00
1232.80   1136.73   21.80   9.08   3.50   3.42   3.26   3.31   3.22   3.10   2.54   2.62   73.00
1232.90   1136.82   21.21   13.95   3.40   3.31   3.19   3.24   3.13   3.04   2.52   2.60   73.00
1233.00   1136.91   21.97   15.13   3.28   3.21   3.09   3.16   3.04   2.94   2.48   2.55   73.00
1233.10   1136.99   19.15   11.89   3.18   3.10   3.01   3.05   2.95   2.86   2.45   2.50   73.00
1233.20   1137.08   20.67   12.64   3.08   2.99   2.96   2.96   2.81   2.80   2.43   2.45   73.00
1233.30   1137.17   20.27   15.21   3.57   3.37   3.20   3.22   2.81   2.91   2.50   2.52   73.00
1233.40   1137.25   24.31   13.38   2.97   2.85   2.85   2.82   2.67   2.68   2.39   2.39   71.99
1233.50   1137.34   18.51   11.07   2.94   2.81   2.81   2.77   2.58   2.64   2.37   2.35   71.99
1233.60   1137.43   20.66   23.07   2.90   2.73   2.73   2.65   2.46   2.52   2.33   2.29   71.99
1233.70   1137.51   21.41   15.76   2.86   2.69   2.68   2.61   2.36   2.46   2.31   2.25   71.99
1233.80   1137.60   20.71   13.41   2.85   2.69   2.68   2.60   2.35   2.45   2.30   2.25   71.99
1233.90   1137.69   17.90   20.97   2.85   2.69   2.67   2.60   2.34   2.44   2.30   2.25   71.99
1234.00   1137.77   22.98   10.00   2.84   2.69   2.67   2.59   2.33   2.44   2.30   2.24   71.99
1234.10   1137.86   20.06   22.22   2.83   2.68   2.66   2.58   2.32   2.43   2.29   2.24   71.99
1234.20   1137.94   18.20   16.74   2.76   2.60   2.59   2.52   2.30   2.38   2.27   2.21   71.99
1234.30   1138.03   22.41   19.86   2.48   2.34   2.42   2.31   2.24   2.29   2.23   2.13   71.99
1234.40   1138.12   23.12   44.41   2.22   2.11   2.27   2.14   2.14   2.21   2.20   2.08   71.99
