~Version Information Section
VERS.           2.0     :   CWLS log ASCII Standard -VERSION 2.0
WRAP.           NO      :   One line per depth step
#
~Well Information Section
#MNEM.UNIT     VALUE/NAME     DESCRIPTION
#--------     ------------     -----------------
STRT.M                        840.30                     : START DEPTH
STOP.M                        2267.00                    : STOP DEPTH
STEP.M                        0.100                      : STEP
STRT_TVD.M                    797.19                     : START TVD
STOP_TVD.M                    2013.28                    : STOP TVD
DEPTH_SCALE.                  MD (meters)                : DEPTH SCALE
NULL.                         -999.25                    : NULL VALUE
DATE.                         2014-12-22                 : DATE
JOBN.                         ORYX_DD11                  : JOB NUMBER
UWI.                          DD 11                      : UNIQUE WELL ID
API.                          DD 11                      : API NUMBER
COMP.                         ORYX Petroleum LTD.        : COMPANY
WELL.                         Damir Dagh-11              : WELL
FLD.                          Hawler                     : FIELD
LOC.                          Damir Dagh                 : LOCATION
CNTY.                         Erbil                      : COUNTY
STAT.                         Kurdistan                  : STATE
PROV.                         Kurdistan                  : PROVINCE
CTRY.                         Iraq                       : COUNTRY
well_Location.                Damir Dagh                 : WELL LOCATION
well_Latitude.                N36 12 11.328              : WELL LATITUDE
well_Longitude.               E43 43 57.3742             : WELL LONGITUDE
well_Section.                                            : SECTION
well_Township.                                           : TOWNSHIP
well_Range.                                              : RANGE
well_Datum.                   MSL                        : PERMANENT DEPTH DATUM
well_Elevation.               0                          : PERMANENT DEPTH ELEVATION
well_KBElevation.             456.3                      : KELLY BUSHING ELEVATION
well_DFElevation.             456.3                      : DRILL FLOOR ELEVATION
well_groundElevation.          450.8                      : GROUND/SEA FLOOR ELEVATION
MDF.                          KELLY BUSHING              : MWD DEPTH MEASURED FROM
surveySection_dTimStart.          25-Nov-2014                : MWD Start Date
surveySection_mdStart.          50                         : MWD Start Depth
surveySection_dTimEnd.                                     : MWD End Date
surveySection_mdEnd.                                     : MWD End Depth
wellbore_mdCurrent.           0.0                        : Total Depth
OS1.                          Downhole Vibration         : Other Services 1
OS2.                          DH Temp.                   : Other Services 2
OS3.                                                     : Other Services 3
OS4.                                                     : Other Services 4
nameOperator.                 EDC                        : Drilling Contractor
nameRig.                      EDC-22                     : Rig Name
typeRig.                      Land Rig                   : Rig Type
OCN1.                         Richard hesse              : Oil Company Name 1
OCN2.                         George Bagheri             : Oil Company Name 2
OCN3.                                                    : Oil Company Name 3
OCN4.                                                    : Oil Company Name 4
nameDirectionalCompany.          OilServ                    : Directional Company Name
DCN1.                         Graham Chalmers            : Directional Company Name 1
DCN2.                         Omid Mcaryan               : Directional Company Name 2
DCN3.                                                    : Directional Company Name 3
DCN4.                                                    : Directional Company Name 4
SRVC.                         OilServ                    : SERVICE COMPANY
SCN1.                         Eugene Kravtsov            : Service Company Name 1
SCN2.                         Astak George               : Service Company Name 2
SCN3.                         Waqas Ahmad Tehami         : Service Company Name 3
SCN4.                         RE'al                      : Service Company Name 4
dTimCreation.                 2014/12/22                 : DATE FILE CREATED
#
~Curve Information Section
#MNEM.UNIT         API CODE       Curve Description       
#----------        -----------    -------------------------------
DEPTH.M                       :  1       DEPTH
TVD.M                         :  2       TRUE VERTICAL DEPTH
GRCM.API/sec        :  3 GAMMA RAY BOREHOLE CORRECTED
ROP.m/hr        :  4 RATE OF PENETRATION
RPCECHM.ohm-m        :  5 RESISTIVITY PHASE DIFF. 2 MHZ LONG SPACING
RPCECSHM.ohm-m        :  6 RESISTIVITY PHASE DIFF. 2 MHZ SHORT SPACING
RPCECLM.ohm-m        :  7 RESISTIVITY PHASE DIFF. 400 KHZ LONG SPACING
RPCECSLM.ohm-m        :  8 RESISTIVITY PHASE DIFF. 400 KHZ SHORT SPACING
RACECSHM.ohm-m        :  9 RESISTIVITY ATTEN. 2 MHZ SHORT SPACING
RACECHM.ohm-m        :  10 RESISTIVITY ATTEN. 2 MHZ LONG SPACING
RACECLM.ohm-m        :  11 RESISTIVITY ATTEN. 400 KHZ LONG SPACING
RACECSLM.ohm-m        :  12 RESISTIVITY ATTEN. 400 KHZ SHORT SPACING
TRM.Celsius        :  13 RESISTIVITY COMPENSATION TEMPERATURE
~A
# ...
947.60   890.00   67.32   16.88   1.54   1.44   1.71   1.59   1.61   1.72   1.87   1.77   57.00
947.70   890.09   72.02   18.40   1.58   1.47   1.76   1.64   1.62   1.73   1.91   1.82   57.00
947.80   890.18   66.33   21.24   1.66   1.55   1.84   1.71   1.70   1.80   1.97   1.87   57.00
947.90   890.26   65.90   26.37   1.74   1.62   1.91   1.79   1.77   1.88   2.01   1.93   57.00
948.00   890.35   65.62   25.50   1.79   1.68   1.96   1.85   1.81   1.94   2.05   1.97   57.00
948.10   890.44   66.59   24.41   1.91   1.80   2.08   1.97   1.90   2.03   2.11   2.04   57.00
948.20   890.52   63.18   14.29   2.08   1.98   2.22   2.11   2.04   2.15   2.17   2.11   57.00
948.30   890.61   66.63   13.52   2.38   2.24   2.41   2.33   2.19   2.27   2.22   2.20   57.00
948.40   890.70   70.17   29.14   2.76   2.52   2.63   2.54   2.32   2.38   2.28   2.27   57.00
948.50   890.78   73.64   28.63   3.19   3.00   2.86   2.82   2.50   2.50   2.32   2.35   57.00
948.60   890.87   69.78   26.57   3.64   3.48   3.09   3.13   2.66   2.62   2.38   2.43   57.00
948.70   890.96   69.13   25.87   4.12   4.05   3.35   3.46   2.94   2.82   2.45   2.54   57.00
948.80   891.04   74.23   25.89   4.16   4.24   3.47   3.63   3.14   2.97   2.50   2.61   57.00
948.90   891.13   63.17   28.31   4.21   4.07   3.49   3.59   3.27   3.10   2.53   2.64   57.00
949.00   891.22   62.66   19.49   4.07   3.93   3.46   3.55   3.25   3.11   2.55   2.67   57.00
949.10   891.30   59.78   19.27   3.99   3.77   3.46   3.55   3.16   3.06   2.58   2.71   57.00
949.20   891.39   61.59   15.57   3.92   3.76   3.43   3.51   3.14   3.04   2.59   2.68   57.00
949.30   891.48   65.25   16.51   3.82   3.61   3.37   3.38   3.09   3.04   2.60   2.65   57.00
949.40   891.56   63.48   15.13   3.47   3.27   3.21   3.18   3.00   2.96   2.59   2.64   57.00
949.50   891.65   62.89   21.46   3.04   2.87   3.01   2.91   2.92   2.87   2.58   2.60   57.00
949.60   891.74   65.45   23.10   2.64   2.45   2.78   2.65   2.75   2.80   2.57   2.56   57.00
949.70   891.82   65.52   23.80   2.31   2.14   2.57   2.38   2.51   2.67   2.54   2.48   57.94
949.80   891.91   68.49   14.01   2.13   2.01   2.43   2.27   2.30   2.45   2.50   2.42   57.99
949.90   892.00   75.76   21.47   2.10   1.98   2.37   2.23   2.19   2.35   2.47   2.37   57.99
950.00   892.08   70.09   22.18   2.03   1.91   2.29   2.14   2.12   2.26   2.43   2.32   57.99
950.10   892.17   72.57   29.08   1.98   1.86   2.23   2.07   2.07   2.22   2.40   2.27   57.99
950.20   892.26   75.59   32.51   1.91   1.78   2.17   2.01   2.02   2.17   2.38   2.25   57.99
950.30   892.34   75.25   27.12   1.87   1.73   2.13   1.98   1.99   2.15   2.36   2.23   57.99
950.40   892.43   76.62   18.76   1.87   1.79   2.13   2.00   1.98   2.12   2.33   2.21   57.99
950.50   892.52   73.14   24.29   1.98   1.91   2.16   2.05   1.99   2.11   2.31   2.18   57.99
950.60   892.60   74.72   3.83   2.05   1.97   2.19   2.07   2.01   2.11   2.29   2.16   57.99
950.70   892.69   80.14   8.03   2.12   2.03   2.22   2.12   2.03   2.13   2.28   2.17   57.99
950.80   892.78   81.23   13.09   2.18   2.08   2.25   2.16   2.06   2.14   2.27   2.18   57.99
950.90   892.86   79.35   14.63   2.27   2.18   2.31   2.24   2.13   2.20   2.28   2.20   57.99
951.00   892.95   75.17   26.56   2.28   2.19   2.32   2.25   2.18   2.24   2.28   2.21   57.99
951.10   893.04   78.64   22.10   2.29   2.19   2.35   2.29   2.21   2.26   2.29   2.23   57.99
951.20   893.12   62.87   11.88   2.33   2.27   2.39   2.34   2.25   2.28   2.29   2.25   57.99
951.30   893.21   68.47   15.43   2.41   2.33   2.42   2.37   2.29   2.32   2.29   2.25   57.99
951.40   893.30   69.97   21.62   2.43   2.34   2.44   2.40   2.31   2.34   2.30   2.27   57.99
951.50   893.38   74.15   16.64   2.43   2.33   2.46   2.42   2.32   2.35   2.31   2.29   57.99
951.60   893.47   71.30   18.12   2.52   2.38   2.49   2.44   2.34   2.38   2.31   2.29   57.99
951.70   893.56   71.02   13.16   2.54   2.41   2.52   2.46   2.33   2.38   2.31   2.30   57.99
951.80   893.64   72.33   27.10   2.52   2.40   2.54   2.48   2.34   2.38   2.32   2.32   57.99
951.90   893.73   69.37   17.70   2.47   2.35   2.52   2.45   2.39   2.43   2.33   2.33   57.99
952.00   893.82   67.39   12.78   2.37   2.26   2.48   2.40   2.41   2.45   2.34   2.33   57.99
952.10   893.90   64.11   20.43   2.26   2.16   2.44   2.37   2.37   2.43   2.34   2.35   57.99
952.20   893.99   68.74   17.97   2.25   2.17   2.44   2.37   2.34   2.39   2.34   2.33   57.99
952.30   894.08   67.75   13.41   2.30   2.24   2.44   2.39   2.33   2.37   2.32   2.32   57.99
952.40   894.16   70.88   16.55   2.35   2.28   2.47   2.42   2.32   2.36   2.31   2.31   57.99
952.50   894.25   69.11   14.82   2.40   2.32   2.49   2.45   2.32   2.37   2.30   2.32   57.99
952.60   894.34   66.20   16.27   2.44   2.35   2.51   2.44   2.36   2.38   2.29   2.29   57.99
952.70   894.42   68.29   18.38   2.47   2.37   2.50   2.42   2.35   2.38   2.27   2.27   57.99
952.80   894.51   66.85   14.02   2.52   2.36   2.50   2.42   2.28   2.35   2.24   2.24   57.99
952.90   894.60   61.55   14.49   2.51   2.39   2.48   2.40   2.29   2.33   2.22   2.21   57.99
953.00   894.68   64.60   17.71   2.46   2.34   2.44   2.36   2.26   2.30   2.19   2.18   57.99
953.10   894.77   66.91   15.04   2.37   2.29   2.39   2.33   2.23   2.26   2.16   2.17   57.99
953.20   894.86   64.78   15.44   2.27   2.17   2.31   2.25   2.21   2.24   2.14   2.13   57.99
953.30   894.94   69.43   16.15   2.09   2.00   2.21   2.15   2.16   2.18   2.10   2.11   57.99
953.40   895.03   78.57   21.57   1.94   1.86   2.11   2.05   2.13   2.16   2.07   2.08   57.99
953.50   895.12   72.01   17.89   1.86   1.80   2.05   1.98   2.05   2.10   2.03   2.01   57.99
953.60   895.20   75.48   19.55   1.88   1.83   2.04   1.97   1.96   2.00   1.99   1.97   57.99
953.70   895.29   73.92   19.16   1.97   1.92   2.05   2.00   1.91   1.95   1.95   1.93   57.99
953.80   895.38   69.70   19.09   2.05   1.96   2.05   1.99   1.88   1.92   1.91   1.89   57.99
953.90   895.46   68.95   15.51   2.07   1.97   2.03   1.98   1.86   1.87   1.87   1.85   57.99
954.00   895.55   65.99   19.96   2.03   1.92   1.98   1.91   1.84   1.86   1.84   1.80   57.99
954.10   895.64   65.36   16.99   1.82   1.72   1.86   1.79   1.76   1.82   1.80   1.76   57.99
954.20   895.72   61.65   21.30   1.71   1.62   1.77   1.71   1.73   1.79   1.78   1.73   57.99
954.30   895.81   64.67   19.71   1.58   1.51   1.71   1.63   1.65   1.74   1.75   1.69   57.99
954.40   895.90   61.20   16.85   1.51   1.46   1.65   1.58   1.58   1.65   1.71   1.65   57.99
954.50   895.98   59.75   16.03   1.47   1.43   1.59   1.54   1.53   1.59   1.68   1.61   57.99
954.60   896.07   63.63   16.38   1.45   1.40   1.57   1.51   1.51   1.56   1.66   1.60   57.99
954.70   896.15   66.37   16.47   1.41   1.35   1.54   1.47   1.48   1.53   1.64   1.58   57.99
954.80   896.24   68.78   17.50   1.34   1.28   1.49   1.42   1.45   1.51   1.63   1.56   57.99
954.90   896.33   66.05   24.81   1.30   1.24   1.46   1.40   1.44   1.51   1.62   1.56   57.99
955.00   896.41   70.00   12.74   1.29   1.24   1.45   1.39   1.43   1.50   1.61   1.54   57.99
955.10   896.50   71.43   11.26   1.34   1.30   1.47   1.41   1.42   1.48   1.60   1.53   57.99
955.20   896.59   76.85   13.56   1.41   1.36   1.50   1.46   1.42   1.48   1.59   1.54   57.99
955.30   896.67   86.54   14.99   1.50   1.44   1.55   1.50   1.45   1.50   1.59   1.54   57.99
955.40   896.76   84.53   14.66   1.56   1.50   1.57   1.54   1.49   1.52   1.59   1.55   57.99
955.50   896.85   81.89   22.12   1.60   1.56   1.60   1.58   1.54   1.55   1.60   1.56   57.99
955.60   896.93   81.71   15.59   1.66   1.59   1.64   1.61   1.59   1.60   1.62   1.57   57.99
955.70   897.02   76.70   18.88   1.67   1.64   1.66   1.65   1.60   1.60   1.64   1.59   57.99
955.80   897.11   77.82   16.71   1.69   1.65   1.67   1.66   1.61   1.62   1.65   1.60   57.99
955.90   897.19   85.70   16.39   1.74   1.70   1.71   1.69   1.63   1.65   1.68   1.62   57.99
