~Version Information Section
VERS.           2.0     :   CWLS log ASCII Standard -VERSION 2.0
WRAP.           NO      :   One line per depth step
#
~Well Information Section
#MNEM.UNIT     VALUE/NAME     DESCRIPTION
#--------     ------------     -----------------
STRT.M                        840.30                     : START DEPTH
STOP.M                        2267.00                    : STOP DEPTH
STEP.M                        0.100                      : STEP
STRT_TVD.M                    797.19                     : START TVD
STOP_TVD.M                    2013.28                    : STOP TVD
DEPTH_SCALE.                  MD (meters)                : DEPTH SCALE
NULL.                         -999.25                    : NULL VALUE
DATE.                         2014-12-22                 : DATE
JOBN.                         ORYX_DD11                  : JOB NUMBER
UWI.                          DD 11                      : UNIQUE WELL ID
API.                          DD 11                      : API NUMBER
COMP.                         ORYX Petroleum LTD.        : COMPANY
WELL.                         Damir Dagh-11              : WELL
FLD.                          Hawler                     : FIELD
LOC.                          Damir Dagh                 : LOCATION
CNTY.                         Erbil                      : COUNTY
STAT.                         Kurdistan                  : STATE
PROV.                         Kurdistan                  : PROVINCE
CTRY.                         Iraq                       : COUNTRY
well_Location.                Damir Dagh                 : WELL LOCATION
well_Latitude.                N36 12 11.328              : WELL LATITUDE
well_Longitude.               E43 43 57.3742             : WELL LONGITUDE
well_Section.                                            : SECTION
well_Township.                                           : TOWNSHIP
well_Range.                                              : RANGE
well_Datum.                   MSL                        : PERMANENT DEPTH DATUM
well_Elevation.               0                          : PERMANENT DEPTH ELEVATION
well_KBElevation.             456.3                      : KELLY BUSHING ELEVATION
well_DFElevation.             456.3                      : DRILL FLOOR ELEVATION
well_groundElevation.          450.8                      : GROUND/SEA FLOOR ELEVATION
MDF.                          KELLY BUSHING              : MWD DEPTH MEASURED FROM
surveySection_dTimStart.          25-Nov-2014                : MWD Start Date
surveySection_mdStart.          50                         : MWD Start Depth
surveySection_dTimEnd.                                     : MWD End Date
surveySection_mdEnd.                                     : MWD End Depth
wellbore_mdCurrent.           0.0                        : Total Depth
OS1.                          Downhole Vibration         : Other Services 1
OS2.                          DH Temp.                   : Other Services 2
OS3.                                                     : Other Services 3
OS4.                                                     : Other Services 4
nameOperator.                 EDC                        : Drilling Contractor
nameRig.                      EDC-22                     : Rig Name
typeRig.                      Land Rig                   : Rig Type
OCN1.                         Richard hesse              : Oil Company Name 1
OCN2.                         George Bagheri             : Oil Company Name 2
OCN3.                                                    : Oil Company Name 3
OCN4.                                                    : Oil Company Name 4
nameDirectionalCompany.          OilServ                    : Directional Company Name
DCN1.                         Graham Chalmers            : Directional Company Name 1
DCN2.                         Omid Mcaryan               : Directional Company Name 2
DCN3.                                                    : Directional Company Name 3
DCN4.                                                    : Directional Company Name 4
SRVC.                         OilServ                    : SERVICE COMPANY
SCN1.                         Eugene Kravtsov            : Service Company Name 1
SCN2.                         Astak George               : Service Company Name 2
SCN3.                         Waqas Ahmad Tehami         : Service Company Name 3
SCN4.                         RE'al                      : Service Company Name 4
dTimCreation.                 2014/12/22                 : DATE FILE CREATED
#
~Curve Information Section
#MNEM.UNIT         API CODE       Curve Description       
#----------        -----------    -------------------------------
DEPTH.M                       :  1       DEPTH
TVD.M                         :  2       TRUE VERTICAL DEPTH
GRCM.API/sec        :  3 GAMMA RAY BOREHOLE CORRECTED
ROP.m/hr        :  4 RATE OF PENETRATION
RPCECHM.ohm-m        :  5 RESISTIVITY PHASE DIFF. 2 MHZ LONG SPACING
RPCECSHM.ohm-m        :  6 RESISTIVITY PHASE DIFF. 2 MHZ SHORT SPACING
RPCECLM.ohm-m        :  7 RESISTIVITY PHASE DIFF. 400 KHZ LONG SPACING
RPCECSLM.ohm-m        :  8 RESISTIVITY PHASE DIFF. 400 KHZ SHORT SPACING
RACECSHM.ohm-m        :  9 RESISTIVITY ATTEN. 2 MHZ SHORT SPACING
RACECHM.ohm-m        :  10 RESISTIVITY ATTEN. 2 MHZ LONG SPACING
RACECLM.ohm-m        :  11 RESISTIVITY ATTEN. 400 KHZ LONG SPACING
RACECSLM.ohm-m        :  12 RESISTIVITY ATTEN. 400 KHZ SHORT SPACING
TRM.Celsius        :  13 RESISTIVITY COMPENSATION TEMPERATURE
~A
# ...
1793.00   1621.42   22.16   18.54   0.73   0.71   0.74   0.73   0.70   0.73   0.77   0.75   79.00
1793.10   1621.50   24.46   18.47   0.76   0.74   0.76   0.75   0.71   0.74   0.78   0.76   79.00
1793.20   1621.59   17.27   10.00   0.77   0.75   0.77   0.76   0.74   0.76   0.78   0.77   79.00
1793.30   1621.67   21.95   6.01   0.77   0.74   0.78   0.77   0.76   0.78   0.79   0.78   79.00
1793.40   1621.76   21.84   7.10   0.77   0.74   0.78   0.78   0.78   0.80   0.80   0.79   79.00
1793.50   1621.84   19.78   6.63   0.77   0.75   0.79   0.79   0.78   0.80   0.80   0.80   79.00
1793.60   1621.93   23.36   10.64   0.79   0.78   0.81   0.80   0.78   0.80   0.81   0.81   79.00
1793.70   1622.01   23.36   10.74   0.84   0.82   0.83   0.82   0.78   0.80   0.82   0.81   79.00
1793.80   1622.10   22.78   7.97   0.89   0.86   0.85   0.85   0.78   0.80   0.82   0.82   79.00
1793.90   1622.18   14.75   8.32   0.92   0.88   0.87   0.86   0.80   0.82   0.82   0.82   79.00
1794.00   1622.27   22.47   10.48   0.93   0.89   0.88   0.86   0.81   0.84   0.83   0.82   79.00
1794.10   1622.35   18.47   7.72   0.92   0.88   0.87   0.86   0.81   0.84   0.83   0.82   79.00
1794.20   1622.44   20.23   12.28   0.86   0.83   0.86   0.84   0.82   0.84   0.83   0.83   79.00
1794.30   1622.52   16.06   10.83   0.81   0.78   0.84   0.82   0.82   0.85   0.84   0.83   79.00
1794.40   1622.61   19.20   13.73   0.73   0.71   0.80   0.78   0.81   0.84   0.84   0.83   79.00
1794.50   1622.69   24.36   15.65   0.70   0.68   0.78   0.76   0.78   0.81   0.84   0.82   79.00
1794.60   1622.78   21.17   12.09   0.69   0.68   0.77   0.75   0.75   0.78   0.84   0.82   79.00
1794.70   1622.86   17.12   12.73   0.71   0.69   0.77   0.76   0.74   0.77   0.83   0.82   79.00
1794.80   1622.94   20.43   12.31   0.73   0.71   0.78   0.76   0.74   0.76   0.83   0.81   79.00
1794.90   1623.03   18.80   11.24   0.76   0.74   0.79   0.77   0.75   0.78   0.83   0.82   79.00
1795.00   1623.11   22.68   11.25   0.78   0.75   0.80   0.78   0.77   0.79   0.83   0.81   79.00
1795.10   1623.20   19.34   10.50   0.80   0.77   0.81   0.79   0.78   0.81   0.83   0.81   79.00
1795.20   1623.28   20.45   10.28   0.81   0.78   0.82   0.80   0.78   0.81   0.83   0.82   79.00
1795.30   1623.37   18.54   10.68   0.83   0.80   0.83   0.81   0.79   0.82   0.83   0.81   79.00
1795.40   1623.45   22.12   10.78   0.85   0.82   0.84   0.82   0.79   0.82   0.83   0.81   79.00
1795.50   1623.54   22.47   11.52   0.85   0.83   0.84   0.83   0.80   0.82   0.83   0.82   79.00
1795.60   1623.62   21.03   11.29   0.83   0.80   0.83   0.82   0.81   0.83   0.84   0.82   79.00
1795.70   1623.71   17.03   14.91   0.80   0.78   0.82   0.82   0.81   0.83   0.84   0.83   79.00
1795.80   1623.79   19.91   10.42   0.77   0.76   0.81   0.80   0.81   0.83   0.85   0.83   79.00
1795.90   1623.88   20.86   9.73   0.75   0.74   0.81   0.80   0.81   0.83   0.85   0.84   79.00
1796.00   1623.96   23.30   10.22   0.75   0.74   0.81   0.79   0.80   0.82   0.85   0.84   79.00
1796.10   1624.05   19.99   10.69   0.78   0.76   0.82   0.80   0.79   0.82   0.86   0.85   79.00
1796.20   1624.13   23.44   9.66   0.82   0.79   0.83   0.82   0.79   0.81   0.86   0.85   79.00
1796.30   1624.22   18.88   10.61   0.84   0.81   0.85   0.84   0.80   0.82   0.86   0.84   79.00
1796.40   1624.30   20.61   11.02   0.85   0.82   0.86   0.84   0.81   0.84   0.86   0.85   79.00
1796.50   1624.39   18.85   9.20   0.86   0.84   0.87   0.85   0.83   0.85   0.86   0.85   79.00
1796.60   1624.47   20.22   10.69   0.87   0.85   0.87   0.86   0.84   0.86   0.87   0.86   79.00
1796.70   1624.56   18.08   11.35   0.86   0.85   0.88   0.87   0.85   0.87   0.87   0.87   79.00
1796.80   1624.64   20.56   11.29   0.86   0.84   0.88   0.88   0.86   0.88   0.88   0.87   79.00
1796.90   1624.73   19.33   12.03   0.88   0.86   0.89   0.89   0.87   0.89   0.89   0.88   79.00
1797.00   1624.81   18.98   8.91   0.90   0.88   0.90   0.90   0.87   0.88   0.88   0.88   79.00
1797.10   1624.90   21.33   12.54   0.93   0.90   0.92   0.91   0.87   0.88   0.89   0.88   79.00
1797.20   1624.98   19.71   10.46   0.93   0.90   0.92   0.92   0.88   0.89   0.89   0.89   79.00
1797.30   1625.06   21.72   9.92   0.91   0.87   0.92   0.91   0.90   0.91   0.90   0.89   79.00
1797.40   1625.15   20.78   10.48   0.87   0.85   0.90   0.90   0.90   0.92   0.90   0.90   79.00
1797.50   1625.23   18.71   10.11   0.86   0.84   0.90   0.89   0.90   0.92   0.91   0.90   79.00
1797.60   1625.32   18.97   11.80   0.86   0.84   0.89   0.88   0.88   0.90   0.91   0.90   79.00
1797.70   1625.40   20.95   8.48   0.87   0.85   0.90   0.89   0.86   0.88   0.91   0.90   79.00
1797.80   1625.49   19.34   9.83   0.90   0.87   0.91   0.89   0.85   0.87   0.92   0.90   79.00
1797.90   1625.57   17.88   7.88   0.91   0.87   0.91   0.89   0.85   0.89   0.92   0.90   79.00
1798.00   1625.66   19.35   10.75   0.89   0.85   0.91   0.88   0.86   0.90   0.93   0.91   79.00
1798.10   1625.74   20.70   9.33   0.86   0.83   0.89   0.88   0.87   0.91   0.94   0.92   79.00
1798.20   1625.83   22.81   9.92   0.83   0.80   0.89   0.87   0.87   0.92   0.95   0.92   79.00
1798.30   1625.91   19.99   9.42   0.83   0.81   0.89   0.87   0.87   0.90   0.95   0.93   79.00
1798.40   1626.00   16.84   11.51   0.85   0.84   0.90   0.88   0.85   0.89   0.96   0.93   79.00
1798.50   1626.08   21.42   8.36   0.90   0.87   0.92   0.90   0.86   0.89   0.96   0.94   79.00
1798.60   1626.17   19.52   11.80   0.93   0.90   0.94   0.93   0.88   0.91   0.97   0.95   79.00
1798.70   1626.25   22.09   10.79   0.95   0.93   0.96   0.95   0.91   0.94   0.98   0.96   79.99
1798.80   1626.34   16.06   10.78   0.96   0.94   0.98   0.97   0.93   0.97   0.99   0.97   79.99
1798.90   1626.42   19.81   11.04   0.97   0.94   1.00   0.98   0.95   0.99   0.99   0.98   79.99
1799.00   1626.51   20.89   11.98   0.99   0.96   1.02   1.00   0.97   1.00   1.00   0.99   79.99
1799.10   1626.59   21.65   12.37   1.02   0.99   1.03   1.02   0.99   1.01   1.01   0.99   79.99
1799.20   1626.68   20.15   11.63   1.04   1.01   1.05   1.04   1.00   1.02   1.01   1.01   79.99
1799.30   1626.76   20.99   11.81   1.05   1.02   1.06   1.05   1.01   1.03   1.02   1.01   79.99
1799.40   1626.85   19.74   15.26   1.03   0.99   1.06   1.04   1.02   1.05   1.02   1.02   79.99
1799.50   1626.93   19.56   15.35   1.00   0.96   1.05   1.03   1.02   1.05   1.02   1.02   79.99
1799.60   1627.02   21.19   8.12   0.98   0.94   1.04   1.02   1.01   1.04   1.02   1.02   79.99
1799.70   1627.10   21.29   7.87   0.97   0.94   1.02   1.01   1.00   1.03   1.02   1.02   79.99
1799.80   1627.18   16.38   9.19   0.97   0.95   1.02   1.01   0.99   1.01   1.02   1.02   79.99
1799.90   1627.27   17.13   10.16   0.97   0.95   1.01   1.00   0.98   1.00   1.01   1.01   79.99
1800.00   1627.35   22.70   8.37   0.95   0.94   1.00   0.99   0.98   0.99   1.00   1.00   79.99
1800.10   1627.44   20.57   9.25   0.95   0.93   0.99   0.99   0.97   0.99   0.99   0.99   79.99
1800.20   1627.52   18.52   9.85   0.95   0.93   0.98   0.98   0.97   0.99   0.98   0.98   79.99
1800.30   1627.61   24.62   9.14   0.95   0.93   0.98   0.98   0.96   0.98   0.96   0.96   79.99
1800.40   1627.69   18.90   8.82   0.95   0.93   0.97   0.97   0.95   0.97   0.95   0.94   79.99
1800.50   1627.78   21.99   8.92   0.97   0.95   0.96   0.95   0.93   0.94   0.93   0.93   79.99
1800.60   1627.86   23.68   7.42   0.99   0.97   0.95   0.95   0.90   0.91   0.92   0.91   79.99
1800.70   1627.95   17.03   9.59   0.96   0.93   0.93   0.92   0.89   0.91   0.90   0.89   79.99
1800.80   1628.03   19.32   8.42   0.89   0.86   0.89   0.88   0.88   0.90   0.89   0.87   79.99
1800.90   1628.12   23.31   9.87   0.82   0.81   0.85   0.84   0.86   0.88   0.88   0.86   79.99
1801.00   1628.20   16.93   10.94   0.76   0.75   0.81   0.80   0.83   0.85   0.87   0.85   79.99
1801.10   1628.29   16.02   10.67   0.72   0.71   0.78   0.77   0.80   0.82   0.86   0.84   79.99
