~Version Information Section
VERS.           2.0     :   CWLS log ASCII Standard -VERSION 2.0
WRAP.           NO      :   One line per depth step
#
~Well Information Section
#MNEM.UNIT     VALUE/NAME     DESCRIPTION
#--------     ------------     -----------------
STRT.M                        840.30                     : START DEPTH
STOP.M                        2267.00                    : STOP DEPTH
STEP.M                        0.100                      : STEP
STRT_TVD.M                    797.19                     : START TVD
STOP_TVD.M                    2013.28                    : STOP TVD
DEPTH_SCALE.                  MD (meters)                : DEPTH SCALE
NULL.                         -999.25                    : NULL VALUE
DATE.                         2014-12-22                 : DATE
JOBN.                         ORYX_DD11                  : JOB NUMBER
UWI.                          DD 11                      : UNIQUE WELL ID
API.                          DD 11                      : API NUMBER
COMP.                         ORYX Petroleum LTD.        : COMPANY
WELL.                         Damir Dagh-11              : WELL
FLD.                          Hawler                     : FIELD
LOC.                          Damir Dagh                 : LOCATION
CNTY.                         Erbil                      : COUNTY
STAT.                         Kurdistan                  : STATE
PROV.                         Kurdistan                  : PROVINCE
CTRY.                         Iraq                       : COUNTRY
well_Location.                Damir Dagh                 : WELL LOCATION
well_Latitude.                N36 12 11.328              : WELL LATITUDE
well_Longitude.               E43 43 57.3742             : WELL LONGITUDE
well_Section.                                            : SECTION
well_Township.                                           : TOWNSHIP
well_Range.                                              : RANGE
well_Datum.                   MSL                        : PERMANENT DEPTH DATUM
well_Elevation.               0                          : PERMANENT DEPTH ELEVATION
well_KBElevation.             456.3                      : KELLY BUSHING ELEVATION
well_DFElevation.             456.3                      : DRILL FLOOR ELEVATION
well_groundElevation.          450.8                      : GROUND/SEA FLOOR ELEVATION
MDF.                          KELLY BUSHING              : MWD DEPTH MEASURED FROM
surveySection_dTimStart.          25-Nov-2014                : MWD Start Date
surveySection_mdStart.          50                         : MWD Start Depth
surveySection_dTimEnd.                                     : MWD End Date
surveySection_mdEnd.                                     : MWD End Depth
wellbore_mdCurrent.           0.0                        : Total Depth
OS1.                          Downhole Vibration         : Other Services 1
OS2.                          DH Temp.                   : Other Services 2
OS3.                                                     : Other Services 3
OS4.                                                     : Other Services 4
nameOperator.                 EDC                        : Drilling Contractor
nameRig.                      EDC-22                     : Rig Name
typeRig.                      Land Rig                   : Rig Type
OCN1.                         Richard hesse              : Oil Company Name 1
OCN2.                         George Bagheri             : Oil Company Name 2
OCN3.                                                    : Oil Company Name 3
OCN4.                                                    : Oil Company Name 4
nameDirectionalCompany.          OilServ                    : Directional Company Name
DCN1.                         Graham Chalmers            : Directional Company Name 1
DCN2.                         Omid Mcaryan               : Directional Company Name 2
DCN3.                                                    : Directional Company Name 3
DCN4.                                                    : Directional Company Name 4
SRVC.                         OilServ                    : SERVICE COMPANY
SCN1.                         Eugene Kravtsov            : Service Company Name 1
SCN2.                         Astak George               : Service Company Name 2
SCN3.                         Waqas Ahmad Tehami         : Service Company Name 3
SCN4.                         RE'al                      : Service Company Name 4
dTimCreation.                 2014/12/22                 : DATE FILE CREATED
#
~Curve Information Section
#MNEM.UNIT         API CODE       Curve Description       
#----------        -----------    -------------------------------
DEPTH.M                       :  1       DEPTH
TVD.M                         :  2       TRUE VERTICAL DEPTH
GRCM.API/sec        :  3 GAMMA RAY BOREHOLE CORRECTED
ROP.m/hr        :  4 RATE OF PENETRATION
RPCECHM.ohm-m        :  5 RESISTIVITY PHASE DIFF. 2 MHZ LONG SPACING
RPCECSHM.ohm-m        :  6 RESISTIVITY PHASE DIFF. 2 MHZ SHORT SPACING
RPCECLM.ohm-m        :  7 RESISTIVITY PHASE DIFF. 400 KHZ LONG SPACING
RPCECSLM.ohm-m        :  8 RESISTIVITY PHASE DIFF. 400 KHZ SHORT SPACING
RACECSHM.ohm-m        :  9 RESISTIVITY ATTEN. 2 MHZ SHORT SPACING
RACECHM.ohm-m        :  10 RESISTIVITY ATTEN. 2 MHZ LONG SPACING
RACECLM.ohm-m        :  11 RESISTIVITY ATTEN. 400 KHZ LONG SPACING
RACECSLM.ohm-m        :  12 RESISTIVITY ATTEN. 400 KHZ SHORT SPACING
TRM.Celsius        :  13 RESISTIVITY COMPENSATION TEMPERATURE
~A
# ...
847.30   803.27   48.08   -999.25   -999.25   -999.25   0.32   0.28   -999.25   -999.25   -999.25   0.06   49.99
847.40   803.35   45.86   -999.25   -999.25   -999.25   0.31   0.27   -999.25   -999.25   -999.25   0.06   49.99
847.50   803.44   49.69   -999.25   -999.25   0.13   0.31   0.27   0.12   -999.25   -999.25   0.05   49.99
847.60   803.53   52.86   -999.25   -999.25   0.13   0.31   0.27   0.12   -999.25   -999.25   0.06   49.99
847.70   803.61   48.38   -999.25   -999.25   0.13   0.31   0.27   0.12   -999.25   -999.25   0.06   49.99
847.80   803.70   48.25   -999.25   -999.25   0.13   0.31   0.27   0.12   -999.25   -999.25   0.05   49.99
847.90   803.79   46.72   -999.25   -999.25   0.13   0.31   0.27   0.12   -999.25   -999.25   0.05   49.99
848.00   803.87   47.83   -999.25   -999.25   0.14   0.33   0.30   0.12   -999.25   -999.25   0.05   49.99
848.10   803.96   45.84   -999.25   -999.25   0.14   0.33   0.28   0.11   -999.25   -999.25   0.06   49.99
848.20   804.05   39.46   -999.25   -999.25   0.15   0.33   0.29   0.11   -999.25   -999.25   0.07   49.99
848.30   804.13   49.03   -999.25   -999.25   0.14   0.32   0.28   0.11   -999.25   -999.25   0.08   49.99
848.40   804.22   47.81   -999.25   -999.25   0.14   0.33   0.28   0.11   -999.25   -999.25   0.09   49.99
848.50   804.31   42.76   -999.25   -999.25   0.15   0.35   0.29   0.11   -999.25   -999.25   0.11   49.99
848.60   804.39   43.41   -999.25   -999.25   0.15   0.36   0.31   0.12   -999.25   -999.25   0.12   49.99
848.70   804.48   42.26   -999.25   -999.25   0.20   0.51   0.38   0.12   -999.25   -999.25   0.13   49.99
848.80   804.57   44.80   -999.25   -999.25   0.19   1.44   0.36   0.12   -999.25   -999.25   0.14   49.99
848.90   804.65   45.61   -999.25   -999.25   0.18   4.97   0.35   0.11   -999.25   -999.25   0.15   49.99
849.00   804.74   49.40   -999.25   -999.25   0.16   8.50   0.31   0.11   -999.25   -999.25   0.16   49.99
849.10   804.83   44.49   -999.25   -999.25   0.19   12.03   0.37   0.12   -999.25   -999.25   0.17   49.99
849.20   804.91   46.92   -999.25   -999.25   0.44   15.56   0.41   0.16   -999.25   -999.25   0.18   49.99
849.30   805.00   47.36   -999.25   -999.25   0.96   19.09   0.51   0.24   -999.25   -999.25   0.20   49.99
849.40   805.09   49.13   -999.25   -999.25   1.48   22.62   0.70   0.32   -999.25   -999.25   0.21   49.99
849.50   805.17   50.89   -999.25   -999.25   2.01   26.16   0.89   0.40   -999.25   -999.25   0.22   49.99
849.60   805.26   49.58   -999.25   -999.25   2.53   29.69   1.08   0.47   -999.25   -999.25   0.23   49.99
849.70   805.35   47.28   -999.25   -999.25   3.05   33.22   1.28   0.55   -999.25   -999.25   0.24   49.99
849.80   805.43   40.74   -999.25   -999.25   3.58   36.75   1.47   0.63   -999.25   -999.25   0.25   49.99
849.90   805.52   35.27   -999.25   -999.25   4.10   40.28   1.66   0.71   -999.25   -999.25   0.26   49.99
850.00   805.61   38.56   -999.25   -999.25   4.62   43.81   1.85   0.78   -999.25   -999.25   0.27   49.99
850.10   805.69   40.37   -999.25   -999.25   4.93   47.34   2.04   0.87   -999.25   -999.25   0.29   49.99
850.20   805.78   44.76   -999.25   -999.25   3.19   50.87   2.23   0.95   -999.25   -999.25   0.30   49.99
850.30   805.87   56.28   -999.25   -999.25   2.03   54.40   2.31   1.92   -999.25   -999.25   1.29   49.99
850.40   805.95   57.32   -999.25   -999.25   1.91   57.93   2.22   2.19   -999.25   -999.25   2.02   49.99
850.50   806.04   51.06   -999.25   -999.25   1.88   31.13   2.20   2.24   -999.25   1.76   2.27   49.99
850.60   806.13   49.89   -999.25   2.12   1.95   2.44   2.25   2.31   2.26   1.64   2.37   49.99
850.70   806.21   52.23   -999.25   2.28   2.08   2.71   2.32   2.33   2.73   2.38   2.42   49.99
850.80   806.30   55.63   -999.25   2.22   2.06   2.70   2.30   2.20   2.62   2.54   2.39   49.99
850.90   806.39   59.08   -999.25   1.96   1.81   2.54   2.10   1.85   2.35   2.58   2.35   49.99
851.00   806.47   56.47   -999.25   1.59   1.50   2.17   1.74   1.45   1.97   2.56   2.20   49.99
851.10   806.56   53.78   -999.25   1.60   1.53   2.02   1.63   1.31   1.82   2.49   2.10   49.99
851.20   806.65   56.32   -999.25   1.93   1.90   2.09   1.66   1.24   1.68   2.43   1.99   49.99
851.30   806.73   56.85   -999.25   2.17   2.18   2.13   1.73   1.32   1.76   2.40   1.97   49.99
851.40   806.82   65.27   -999.25   2.36   2.41   2.25   1.83   1.47   1.93   2.42   1.98   49.99
851.50   806.91   54.66   -999.25   2.48   2.53   2.35   1.89   1.53   2.03   2.43   1.99   49.99
851.60   806.99   51.90   -999.25   2.60   2.62   2.41   1.92   1.59   2.13   2.43   1.98   49.99
851.70   807.08   51.08   -999.25   2.70   2.63   2.52   1.98   1.57   2.17   2.46   2.01   49.99
851.80   807.17   52.39   -999.25   2.73   2.62   2.54   1.99   1.49   2.22   2.45   2.02   49.99
851.90   807.25   58.19   -999.25   2.73   2.73   2.71   2.15   1.70   2.36   2.53   2.09   49.99
852.00   807.34   58.74   -999.25   2.62   2.60   2.70   2.18   1.67   2.24   2.54   2.15   49.99
852.10   807.43   63.30   -999.25   2.38   2.22   2.50   2.03   1.60   2.11   2.49   2.16   49.99
852.20   807.51   63.18   -999.25   2.07   1.86   2.33   1.89   1.55   2.05   2.47   2.15   49.99
852.30   807.60   53.78   -999.25   1.94   1.67   2.27   1.86   1.56   2.07   2.48   2.20   50.37
852.40   807.69   55.65   -999.25   1.96   1.64   2.28   1.83   1.60   2.08   2.47   2.18   50.66
852.50   807.77   53.63   -999.25   2.02   1.68   2.26   1.82   1.55   2.11   2.42   2.14   50.26
852.60   807.86   59.48   -999.25   2.05   1.76   2.27   1.90   1.66   2.08   2.39   2.18   51.00
852.70   807.95   64.76   -999.25   2.06   1.74   2.30   1.92   1.74   2.14   2.39   2.19   51.00
852.80   808.03   70.86   -999.25   2.08   1.72   2.33   1.93   1.78   2.26   2.40   2.18   51.00
852.90   808.12   65.27   -999.25   2.11   1.73   2.36   1.93   1.77   2.24   2.38   2.16   51.00
853.00   808.21   61.14   -999.25   2.12   1.74   2.32   1.91   1.74   2.16   2.34   2.13   51.00
853.10   808.29   63.70   -999.25   2.09   1.66   2.29   1.86   1.71   2.17   2.32   2.11   51.00
853.20   808.38   64.89   -999.25   1.89   1.52   2.15   1.76   1.61   1.99   2.27   2.06   51.00
853.30   808.47   63.08   -999.25   1.82   1.46   2.10   1.72   1.62   1.97   2.25   2.05   51.00
853.40   808.56   66.01   -999.25   1.73   1.43   2.01   1.67   1.51   1.82   2.20   2.01   51.00
853.50   808.64   63.58   -999.25   1.77   1.47   2.01   1.67   1.49   1.82   2.18   1.99   51.00
853.60   808.73   58.94   -999.25   1.83   1.54   2.03   1.71   1.54   1.84   2.16   1.97   51.00
853.70   808.82   59.68   -999.25   1.82   1.52   2.02   1.71   1.59   1.85   2.13   1.97   51.00
853.80   808.90   65.48   -999.25   1.72   1.43   1.97   1.64   1.59   1.92   2.12   1.94   51.00
853.90   808.99   64.07   -999.25   1.69   1.39   1.94   1.61   1.50   1.85   2.10   1.92   51.00
854.00   809.08   61.06   -999.25   1.80   1.47   1.97   1.62   1.47   1.79   2.07   1.88   51.00
854.10   809.16   60.36   88.35   1.97   1.55   2.04   1.66   1.52   1.85   2.03   1.85   51.00
854.20   809.25   66.78   75.20   1.98   1.56   2.06   1.69   1.55   1.90   2.02   1.84   51.00
854.30   809.34   69.80   94.00   1.94   1.53   2.03   1.66   1.54   1.88   1.99   1.82   51.00
854.40   809.42   66.50   84.36   1.89   1.46   1.99   1.60   1.49   1.85   1.97   1.79   51.00
854.50   809.51   63.77   103.39   1.74   1.32   1.91   1.51   1.44   1.85   1.96   1.76   51.00
854.60   809.60   58.51   148.29   1.53   1.15   1.77   1.38   1.37   1.81   1.94   1.73   51.00
854.70   809.68   71.22   97.57   1.37   1.03   1.67   1.29   1.26   1.70   1.92   1.70   51.00
854.80   809.77   67.23   119.21   1.25   0.95   1.56   1.21   1.16   1.54   1.89   1.67   51.00
854.90   809.86   62.19   118.29   1.17   0.89   1.47   1.14   1.09   1.42   1.85   1.64   51.00
855.00   809.94   69.06   61.82   1.17   0.93   1.44   1.14   1.04   1.33   1.82   1.61   51.00
855.10   810.03   65.38   75.86   1.19   0.94   1.46   1.16   1.10   1.37   1.82   1.62   51.00
