~Version Information Section
VERS.           2.0     :   CWLS log ASCII Standard -VERSION 2.0
WRAP.           NO      :   One line per depth step
#
~Well Information Section
#MNEM.UNIT     VALUE/NAME     DESCRIPTION
#--------     ------------     -----------------
STRT.M                        840.30                     : START DEPTH
STOP.M                        2267.00                    : STOP DEPTH
STEP.M                        0.100                      : STEP
STRT_TVD.M                    797.19                     : START TVD
STOP_TVD.M                    2013.28                    : STOP TVD
DEPTH_SCALE.                  MD (meters)                : DEPTH SCALE
NULL.                         -999.25                    : NULL VALUE
DATE.                         2014-12-22                 : DATE
JOBN.                         ORYX_DD11                  : JOB NUMBER
UWI.                          DD 11                      : UNIQUE WELL ID
API.                          DD 11                      : API NUMBER
COMP.                         ORYX Petroleum LTD.        : COMPANY
WELL.                         Damir Dagh-11              : WELL
FLD.                          Hawler                     : FIELD
LOC.                          Damir Dagh                 : LOCATION
CNTY.                         Erbil                      : COUNTY
STAT.                         Kurdistan                  : STATE
PROV.                         Kurdistan                  : PROVINCE
CTRY.                         Iraq                       : COUNTRY
well_Location.                Damir Dagh                 : WELL LOCATION
well_Latitude.                N36 12 11.328              : WELL LATITUDE
well_Longitude.               E43 43 57.3742             : WELL LONGITUDE
well_Section.                                            : SECTION
well_Township.                                           : TOWNSHIP
well_Range.                                              : RANGE
well_Datum.                   MSL                        : PERMANENT DEPTH DATUM
well_Elevation.               0                          : PERMANENT DEPTH ELEVATION
well_KBElevation.             456.3                      : KELLY BUSHING ELEVATION
well_DFElevation.             456.3                      : DRILL FLOOR ELEVATION
well_groundElevation.          450.8                      : GROUND/SEA FLOOR ELEVATION
MDF.                          KELLY BUSHING              : MWD DEPTH MEASURED FROM
surveySection_dTimStart.          25-Nov-2014                : MWD Start Date
surveySection_mdStart.          50                         : MWD Start Depth
surveySection_dTimEnd.                                     : MWD End Date
surveySection_mdEnd.                                     : MWD End Depth
wellbore_mdCurrent.           0.0                        : Total Depth
OS1.                          Downhole Vibration         : Other Services 1
OS2.                          DH Temp.                   : Other Services 2
OS3.                                                     : Other Services 3
OS4.                                                     : Other Services 4
nameOperator.                 EDC                        : Drilling Contractor
nameRig.                      EDC-22                     : Rig Name
typeRig.                      Land Rig                   : Rig Type
OCN1.                         Richard hesse              : Oil Company Name 1
OCN2.                         George Bagheri             : Oil Company Name 2
OCN3.                                                    : Oil Company Name 3
OCN4.                                                    : Oil Company Name 4
nameDirectionalCompany.          OilServ                    : Directional Company Name
DCN1.                         Graham Chalmers            : Directional Company Name 1
DCN2.                         Omid Mcaryan               : Directional Company Name 2
DCN3.                                                    : Directional Company Name 3
DCN4.                                                    : Directional Company Name 4
SRVC.                         OilServ                    : SERVICE COMPANY
SCN1.                         Eugene Kravtsov            : Service Company Name 1
SCN2.                         Astak George               : Service Company Name 2
SCN3.                         Waqas Ahmad Tehami         : Service Company Name 3
SCN4.                         RE'al                      : Service Company Name 4
dTimCreation.                 2014/12/22                 : DATE FILE CREATED
#
~Curve Information Section
#MNEM.UNIT         API CODE       Curve Description       
#----------        -----------    -------------------------------
DEPTH.M                       :  1       DEPTH
TVD.M                         :  2       TRUE VERTICAL DEPTH
GRCM.API/sec        :  3 GAMMA RAY BOREHOLE CORRECTED
ROP.m/hr        :  4 RATE OF PENETRATION
RPCECHM.ohm-m        :  5 RESISTIVITY PHASE DIFF. 2 MHZ LONG SPACING
RPCECSHM.ohm-m        :  6 RESISTIVITY PHASE DIFF. 2 MHZ SHORT SPACING
RPCECLM.ohm-m        :  7 RESISTIVITY PHASE DIFF. 400 KHZ LONG SPACING
RPCECSLM.ohm-m        :  8 RESISTIVITY PHASE DIFF. 400 KHZ SHORT SPACING
RACECSHM.ohm-m        :  9 RESISTIVITY ATTEN. 2 MHZ SHORT SPACING
RACECHM.ohm-m        :  10 RESISTIVITY ATTEN. 2 MHZ LONG SPACING
RACECLM.ohm-m        :  11 RESISTIVITY ATTEN. 400 KHZ LONG SPACING
RACECSLM.ohm-m        :  12 RESISTIVITY ATTEN. 400 KHZ SHORT SPACING
TRM.Celsius        :  13 RESISTIVITY COMPENSATION TEMPERATURE
~A
# ...
1324.80   1216.41   21.19   6.41   9.02   7.98   6.47   6.44   5.39   5.20   3.63   3.64   73.00
1324.90   1216.50   22.07   3.57   8.75   7.57   6.25   6.21   4.93   5.03   3.54   3.56   73.00
1325.00   1216.58   26.86   4.58   8.27   6.74   5.84   5.64   4.53   4.61   3.41   3.44   73.00
1325.10   1216.67   20.23   4.06   6.55   5.39   5.21   4.82   4.31   4.52   3.32   3.29   73.00
1325.20   1216.76   20.09   3.52   4.74   3.88   4.34   3.97   4.24   4.46   3.18   3.13   73.00
1325.30   1216.84   18.69   5.51   3.67   3.07   3.73   3.40   3.91   4.24   3.08   3.01   73.00
1325.40   1216.93   19.04   4.19   2.82   2.55   3.25   2.93   3.45   3.97   2.99   2.87   73.00
1325.50   1217.02   18.22   5.33   2.32   2.14   2.89   2.61   3.00   3.42   2.89   2.73   73.00
1325.60   1217.10   17.79   6.16   2.10   1.97   2.61   2.36   2.59   2.95   2.76   2.54   73.00
1325.70   1217.19   19.67   5.17   2.01   1.85   2.46   2.19   2.35   2.63   2.66   2.40   73.00
1325.80   1217.28   19.04   7.37   2.02   1.79   2.36   2.06   2.13   2.44   2.55   2.29   73.00
1325.90   1217.36   22.22   4.75   2.10   1.82   2.34   2.04   1.98   2.33   2.46   2.22   73.00
1326.00   1217.45   21.91   5.71   2.29   1.90   2.34   2.02   1.84   2.21   2.36   2.12   73.00
1326.10   1217.54   25.85   5.27   2.22   1.84   2.27   1.93   1.83   2.13   2.30   2.05   73.00
1326.20   1217.62   27.41   6.53   1.76   1.57   2.02   1.77   1.82   2.20   2.29   2.05   73.00
1326.30   1217.71   31.38   9.44   1.48   1.36   1.86   1.65   1.80   2.11   2.30   2.04   73.00
1326.40   1217.80   36.43   10.55   1.27   1.20   1.69   1.51   1.68   1.97   2.26   1.99   73.00
1326.50   1217.88   33.91   5.19   1.28   1.23   1.68   1.51   1.56   1.85   2.23   1.96   73.00
1326.60   1217.97   23.73   11.53   1.43   1.37   1.76   1.59   1.55   1.81   2.21   1.96   73.00
1326.70   1218.06   25.48   7.44   1.65   1.54   1.88   1.71   1.59   1.85   2.21   1.97   73.00
1326.80   1218.14   20.13   10.08   1.94   1.78   2.05   1.86   1.70   1.94   2.23   2.01   73.00
1326.90   1218.23   23.85   8.73   2.48   2.18   2.34   2.11   1.88   2.11   2.26   2.07   73.00
1327.00   1218.32   24.25   7.57   3.20   2.77   2.67   2.42   2.01   2.21   2.30   2.12   73.00
1327.10   1218.40   24.99   12.00   4.06   3.42   3.03   2.78   2.20   2.40   2.35   2.21   73.00
1327.20   1218.49   26.75   11.64   4.33   3.85   3.32   3.14   2.64   2.85   2.45   2.35   73.00
1327.30   1218.58   31.83   13.83   4.18   3.78   3.37   3.25   2.97   3.07   2.51   2.44   73.00
1327.40   1218.67   27.60   9.79   3.92   3.70   3.38   3.33   3.08   3.20   2.58   2.56   73.00
1327.50   1218.75   30.56   10.28   3.77   3.54   3.37   3.36   3.29   3.38   2.62   2.63   73.00
1327.60   1218.84   25.27   8.34   3.70   3.50   3.40   3.42   3.33   3.35   2.66   2.71   73.00
1327.70   1218.93   19.70   11.33   3.85   3.58   3.48   3.46   3.25   3.29   2.68   2.72   73.00
1327.80   1219.01   24.63   10.44   4.24   3.83   3.69   3.63   3.18   3.23   2.71   2.75   73.00
1327.90   1219.10   26.39   7.73   4.62   4.06   3.84   3.73   3.08   3.24   2.72   2.75   73.00
1328.00   1219.19   28.70   5.24   4.86   4.15   3.98   3.75   3.06   3.26   2.75   2.75   73.00
1328.10   1219.27   36.08   7.46   4.46   3.73   3.80   3.52   3.21   3.37   2.75   2.70   73.00
1328.20   1219.36   31.74   6.70   3.53   3.04   3.45   3.18   3.24   3.47   2.76   2.71   73.00
1328.30   1219.45   32.24   5.43   2.89   2.57   3.13   2.86   3.21   3.43   2.74   2.66   73.00
1328.40   1219.53   24.02   8.31   2.30   2.09   2.71   2.51   2.80   3.08   2.67   2.61   73.00
1328.50   1219.62   21.03   6.84   1.97   1.85   2.47   2.27   2.56   2.80   2.63   2.52   73.00
1328.60   1219.71   22.58   9.92   1.86   1.76   2.32   2.14   2.33   2.56   2.56   2.44   73.09
1328.70   1219.79   22.71   9.06   1.94   1.83   2.34   2.14   2.21   2.43   2.54   2.38   74.00
1328.80   1219.88   22.40   8.24   2.27   2.16   2.43   2.28   2.09   2.28   2.47   2.32   73.61
1328.90   1219.97   22.30   4.66   2.67   2.52   2.58   2.45   2.12   2.30   2.44   2.29   74.00
1329.00   1220.05   26.06   5.95   3.22   2.92   2.78   2.60   2.13   2.36   2.42   2.26   74.00
1329.10   1220.14   23.43   9.92   3.67   3.17   2.93   2.66   2.09   2.41   2.41   2.21   74.00
1329.20   1220.23   23.31   8.63   3.73   3.16   2.96   2.64   2.14   2.47   2.41   2.20   74.00
1329.30   1220.31   24.40   10.89   3.46   2.94   2.86   2.55   2.10   2.49   2.41   2.19   74.00
1329.40   1220.40   27.61   7.16   3.30   2.80   2.78   2.47   2.07   2.42   2.39   2.18   74.00
1329.50   1220.49   24.48   25.06   2.61   2.33   2.49   2.27   2.09   2.36   2.39   2.19   74.00
1329.60   1220.58   23.79   9.32   1.64   1.64   2.07   1.93   2.24   2.48   2.45   2.24   74.00
1329.70   1220.66   19.74   8.55   1.33   1.35   1.85   1.73   2.12   2.29   2.45   2.25   74.00
1329.80   1220.75   16.70   8.94   1.44   1.38   1.87   1.75   1.84   2.06   2.41   2.24   74.00
1329.90   1220.84   21.68   8.25   1.99   1.81   2.17   1.98   1.70   1.92   2.41   2.22   74.00
1330.00   1220.92   22.88   5.04   3.06   2.57   2.63   2.37   1.91   2.17   2.45   2.25   74.00
1330.10   1221.01   19.41   4.29   3.68   3.06   2.98   2.69   2.24   2.47   2.54   2.35   74.00
1330.20   1221.10   28.48   6.21   4.01   3.49   3.23   2.99   2.58   2.84   2.63   2.47   74.00
1330.30   1221.18   29.99   5.33   4.49   4.10   3.43   3.30   2.79   2.96   2.69   2.54   74.00
1330.40   1221.27   27.26   4.92   5.25   5.25   3.75   3.76   2.95   3.01   2.75   2.60   74.00
1330.50   1221.36   30.75   16.73   6.09   6.01   4.02   4.11   3.19   3.12   2.79   2.68   74.00
1330.60   1221.44   30.48   38.83   6.37   6.23   4.23   4.28   3.37   3.35   2.87   2.76   74.00
1330.70   1221.53   27.66   20.90   6.77   6.32   4.41   4.39   3.30   3.49   2.95   2.82   74.00
1330.80   1221.62   29.94   12.23   7.13   6.35   4.61   4.52   3.31   3.61   3.02   2.89   74.00
1330.90   1221.70   29.68   5.47   7.15   6.28   4.72   4.60   3.37   3.65   3.09   2.96   74.00
1331.00   1221.79   25.48   5.64   6.38   5.51   4.61   4.35   3.55   3.71   3.18   3.00   74.00
1331.10   1221.88   26.65   6.38   5.06   4.16   4.21   3.87   3.73   3.73   3.23   3.06   74.00
1331.20   1221.96   23.80   5.62   3.42   2.95   3.57   3.25   3.69   3.67   3.28   3.11   74.00
1331.30   1222.05   18.87   9.25   2.28   2.08   2.90   2.65   3.46   3.56   3.33   3.15   74.00
1331.40   1222.14   20.18   5.85   1.76   1.71   2.53   2.34   3.00   3.32   3.39   3.12   74.00
1331.50   1222.22   15.17   5.52   1.72   1.72   2.49   2.27   2.54   3.00   3.42   3.03   74.00
1331.60   1222.31   14.89   6.33   2.10   2.05   2.68   2.44   2.29   2.73   3.38   2.97   74.00
1331.70   1222.40   19.22   6.12   3.26   2.96   3.25   2.91   2.18   2.62   3.38   2.97   74.00
1331.80   1222.49   20.46   4.85   4.69   3.94   3.82   3.38   2.37   2.80   3.40   3.05   74.00
1331.90   1222.57   20.46   4.46   6.12   4.66   4.43   3.81   2.70   3.15   3.54   3.16   74.00
1332.00   1222.66   20.00   5.71   6.68   5.02   4.87   4.17   3.26   3.69   3.72   3.35   74.00
1332.10   1222.75   19.52   7.53   5.71   4.58   4.88   4.26   3.80   4.39   3.98   3.58   74.00
1332.20   1222.83   27.57   13.43   4.53   4.14   4.57   4.16   4.34   4.96   4.16   3.73   74.00
1332.30   1222.92   26.73   6.71   4.06   3.76   4.46   4.08   4.62   5.01   4.33   3.90   74.00
1332.40   1223.01   21.12   41.11   4.06   3.78   4.55   4.16   4.55   5.09   4.44   4.02   74.00
1332.50   1223.09   20.86   17.87   4.41   3.97   4.75   4.27   4.45   4.91   4.45   4.06   74.00
1332.60   1223.18   21.83   10.37   4.96   4.19   5.14   4.60   4.71   5.14   4.62   4.29   74.00
1332.70   1223.27   16.41   6.96   5.11   4.35   5.32   4.71   4.89   5.49   4.74   4.35   74.00
1332.80   1223.35   21.14   6.19   5.39   4.63   5.59   4.92   5.03   5.58   4.91   4.49   74.00
1332.90   1223.44   19.58   5.93   6.03   5.28   6.03   5.42   4.89   5.76   5.06   4.70   74.00
1333.00   1223.53   17.36   6.49   8.58   7.58   7.37   6.92   4.73   5.86   5.26   4.84   74.00
