~Version Information Section
VERS.           2.0     :   CWLS log ASCII Standard -VERSION 2.0
WRAP.           NO      :   One line per depth step
#
~Well Information Section
#MNEM.UNIT     VALUE/NAME     DESCRIPTION
#--------     ------------     -----------------
STRT.M                        840.30                     : START DEPTH
STOP.M                        2267.00                    : STOP DEPTH
STEP.M                        0.100                      : STEP
STRT_TVD.M                    797.19                     : START TVD
STOP_TVD.M                    2013.28                    : STOP TVD
DEPTH_SCALE.                  MD (meters)                : DEPTH SCALE
NULL.                         -999.25                    : NULL VALUE
DATE.                         2014-12-22                 : DATE
JOBN.                         ORYX_DD11                  : JOB NUMBER
UWI.                          DD 11                      : UNIQUE WELL ID
API.                          DD 11                      : API NUMBER
COMP.                         ORYX Petroleum LTD.        : COMPANY
WELL.                         Damir Dagh-11              : WELL
FLD.                          Hawler                     : FIELD
LOC.                          Damir Dagh                 : LOCATION
CNTY.                         Erbil                      : COUNTY
STAT.                         Kurdistan                  : STATE
PROV.                         Kurdistan                  : PROVINCE
CTRY.                         Iraq                       : COUNTRY
well_Location.                Damir Dagh                 : WELL LOCATION
well_Latitude.                N36 12 11.328              : WELL LATITUDE
well_Longitude.               E43 43 57.3742             : WELL LONGITUDE
well_Section.                                            : SECTION
well_Township.                                           : TOWNSHIP
well_Range.                                              : RANGE
well_Datum.                   MSL                        : PERMANENT DEPTH DATUM
well_Elevation.               0                          : PERMANENT DEPTH ELEVATION
well_KBElevation.             456.3                      : KELLY BUSHING ELEVATION
well_DFElevation.             456.3                      : DRILL FLOOR ELEVATION
well_groundElevation.          450.8                      : GROUND/SEA FLOOR ELEVATION
MDF.                          KELLY BUSHING              : MWD DEPTH MEASURED FROM
surveySection_dTimStart.          25-Nov-2014                : MWD Start Date
surveySection_mdStart.          50                         : MWD Start Depth
surveySection_dTimEnd.                                     : MWD End Date
surveySection_mdEnd.                                     : MWD End Depth
wellbore_mdCurrent.           0.0                        : Total Depth
OS1.                          Downhole Vibration         : Other Services 1
OS2.                          DH Temp.                   : Other Services 2
OS3.                                                     : Other Services 3
OS4.                                                     : Other Services 4
nameOperator.                 EDC                        : Drilling Contractor
nameRig.                      EDC-22                     : Rig Name
typeRig.                      Land Rig                   : Rig Type
OCN1.                         Richard hesse              : Oil Company Name 1
OCN2.                         George Bagheri             : Oil Company Name 2
OCN3.                                                    : Oil Company Name 3
OCN4.                                                    : Oil Company Name 4
nameDirectionalCompany.          OilServ                    : Directional Company Name
DCN1.                         Graham Chalmers            : Directional Company Name 1
DCN2.                         Omid Mcaryan               : Directional Company Name 2
DCN3.                                                    : Directional Company Name 3
DCN4.                                                    : Directional Company Name 4
SRVC.                         OilServ                    : SERVICE COMPANY
SCN1.                         Eugene Kravtsov            : Service Company Name 1
SCN2.                         Astak George               : Service Company Name 2
SCN3.                         Waqas Ahmad Tehami         : Service Company Name 3
SCN4.                         RE'al                      : Service Company Name 4
dTimCreation.                 2014/12/22                 : DATE FILE CREATED
#
~Curve Information Section
#MNEM.UNIT         API CODE       Curve Description       
#----------        -----------    -------------------------------
DEPTH.M                       :  1       DEPTH
TVD.M                         :  2       TRUE VERTICAL DEPTH
GRCM.API/sec        :  3 GAMMA RAY BOREHOLE CORRECTED
ROP.m/hr        :  4 RATE OF PENETRATION
RPCECHM.ohm-m        :  5 RESISTIVITY PHASE DIFF. 2 MHZ LONG SPACING
RPCECSHM.ohm-m        :  6 RESISTIVITY PHASE DIFF. 2 MHZ SHORT SPACING
RPCECLM.ohm-m        :  7 RESISTIVITY PHASE DIFF. 400 KHZ LONG SPACING
RPCECSLM.ohm-m        :  8 RESISTIVITY PHASE DIFF. 400 KHZ SHORT SPACING
RACECSHM.ohm-m        :  9 RESISTIVITY ATTEN. 2 MHZ SHORT SPACING
RACECHM.ohm-m        :  10 RESISTIVITY ATTEN. 2 MHZ LONG SPACING
RACECLM.ohm-m        :  11 RESISTIVITY ATTEN. 400 KHZ LONG SPACING
RACECSLM.ohm-m        :  12 RESISTIVITY ATTEN. 400 KHZ SHORT SPACING
TRM.Celsius        :  13 RESISTIVITY COMPENSATION TEMPERATURE
~A
# ...
1892.00   1705.69   35.43   1.77   8.92   8.76   8.87   8.86   8.50   8.50   9.90   8.97   54.00
1892.10   1705.77   32.01   1.56   8.85   8.74   8.89   8.84   8.48   8.51   10.03   8.98   54.00
1892.20   1705.86   33.51   1.92   8.84   8.69   8.88   8.86   8.44   8.51   10.16   9.10   54.00
1892.30   1705.94   36.89   1.55   8.82   8.67   8.89   8.83   8.42   8.50   10.25   9.11   54.00
1892.40   1706.03   37.33   1.67   8.79   8.65   8.87   8.83   8.40   8.50   10.33   9.18   54.00
1892.50   1706.11   39.34   1.39   8.68   8.55   8.84   8.76   8.40   8.50   10.39   9.26   54.00
1892.60   1706.20   37.39   2.15   8.59   8.45   8.81   8.68   8.39   8.48   10.44   9.26   54.00
1892.70   1706.28   39.80   2.41   8.60   8.46   8.82   8.68   8.35   8.47   10.55   9.24   54.00
1892.80   1706.37   44.95   1.25   8.59   8.43   8.82   8.67   8.32   8.46   10.61   9.32   54.00
1892.90   1706.46   45.24   0.46   8.35   8.24   8.72   8.52   8.35   8.48   10.73   9.31   54.00
1893.00   1706.54   42.70   2.13   8.24   8.13   8.67   8.47   8.33   8.49   10.76   9.41   54.00
1893.10   1706.63   34.70   2.47   8.26   8.12   8.68   8.48   8.34   8.49   10.81   9.45   54.00
1893.20   1706.71   38.03   2.33   8.45   8.25   8.76   8.58   8.33   8.49   10.86   9.44   54.00
1893.30   1706.80   40.50   2.90   8.51   8.31   8.82   8.64   8.36   8.51   10.92   9.50   54.00
1893.40   1706.88   38.01   2.14   8.46   8.28   8.80   8.60   8.41   8.54   10.97   9.53   54.00
1893.50   1706.97   40.47   2.80   8.45   8.28   8.82   8.62   8.47   8.59   11.05   9.63   54.00
1893.60   1707.05   45.67   2.84   8.50   8.35   8.85   8.67   8.51   8.64   11.10   9.65   54.00
1893.70   1707.14   42.70   2.00   8.51   8.39   8.87   8.74   8.57   8.70   11.17   9.79   54.00
1893.80   1707.22   39.55   2.04   8.61   8.45   8.92   8.80   8.61   8.74   11.26   9.72   54.00
1893.90   1707.31   37.21   2.10   8.85   8.69   9.09   8.95   8.67   8.76   11.27   9.89   54.00
1894.00   1707.39   41.18   2.52   9.00   8.88   9.22   9.08   8.73   8.81   11.36   9.79   54.10
1894.10   1707.48   40.20   1.94   9.07   8.94   9.26   9.16   8.81   8.87   11.39   9.93   54.55
1894.20   1707.56   38.65   1.99   9.17   8.99   9.33   9.21   8.86   8.94   11.46   9.80   55.00
1894.30   1707.65   34.89   1.40   9.26   9.14   9.42   9.30   8.91   8.98   11.53   9.95   55.00
1894.40   1707.74   33.38   1.77   9.41   9.22   9.50   9.40   8.98   9.07   11.56   10.09   55.00
1894.50   1707.82   39.03   4.03   9.35   9.19   9.52   9.41   9.09   9.14   11.68   10.18   55.00
1894.60   1707.91   38.61   2.52   9.26   9.11   9.50   9.35   9.15   9.20   11.72   10.18   55.00
1894.70   1707.99   40.74   1.31   9.21   9.03   9.49   9.33   9.22   9.27   11.80   10.29   55.00
1894.80   1708.08   39.86   5.11   9.30   9.12   9.57   9.38   9.28   9.32   11.85   10.23   55.00
1894.90   1708.16   32.28   14.09   9.46   9.21   9.65   9.50   9.29   9.37   11.96   10.30   55.00
1895.00   1708.25   36.21   3.09   9.51   9.27   9.71   9.56   9.36   9.42   11.95   10.54   55.00
1895.10   1708.33   35.81   2.13   9.52   9.30   9.75   9.55   9.41   9.47   12.06   10.40   55.00
1895.20   1708.42   40.00   2.60   9.55   9.27   9.76   9.59   9.44   9.53   12.09   10.38   55.00
1895.30   1708.50   38.97   1.84   9.59   9.37   9.83   9.65   9.50   9.55   12.16   10.47   55.00
1895.40   1708.59   33.07   2.52   9.74   9.51   9.91   9.77   9.54   9.58   12.21   10.55   55.00
1895.50   1708.67   32.98   1.87   9.87   9.66   9.98   9.89   9.56   9.62   12.22   10.70   55.00
1895.60   1708.76   34.20   2.39   9.93   9.73   10.05   9.91   9.62   9.65   12.31   10.56   55.00
1895.70   1708.84   39.11   1.77   9.91   9.71   10.05   9.94   9.62   9.66   12.30   10.64   55.00
1895.80   1708.93   33.90   1.77   9.91   9.71   10.06   9.92   9.67   9.69   12.33   10.62   55.00
1895.90   1709.01   32.20   1.75   9.96   9.74   10.08   9.98   9.65   9.71   12.41   10.71   55.00
1896.00   1709.10   30.77   1.67   10.01   9.83   10.14   10.02   9.69   9.70   12.43   10.67   55.00
1896.10   1709.19   30.52   1.72   10.00   9.78   10.12   10.00   9.69   9.73   12.46   10.67   55.00
1896.20   1709.27   34.82   2.14   9.89   9.71   10.08   9.95   9.70   9.73   12.51   10.70   55.00
1896.30   1709.36   32.81   3.05   9.81   9.63   10.04   9.90   9.70   9.73   12.52   10.82   55.00
1896.40   1709.44   37.70   2.83   9.80   9.62   10.03   9.85   9.70   9.72   12.58   10.80   55.00
1896.50   1709.53   34.02   2.75   9.80   9.63   10.05   9.87   9.68   9.72   12.55   10.77   55.00
1896.60   1709.61   37.92   2.75   9.76   9.57   10.01   9.83   9.66   9.71   12.58   10.75   55.00
1896.70   1709.70   35.33   2.87   9.69   9.50   9.99   9.80   9.63   9.71   12.64   10.68   55.00
1896.80   1709.78   34.41   2.77   9.70   9.47   9.98   9.78   9.60   9.70   12.61   10.75   55.00
1896.90   1709.87   35.47   3.07   9.73   9.49   10.02   9.80   9.56   9.68   12.63   10.70   55.00
1897.00   1709.95   33.05   2.96   9.80   9.51   10.03   9.84   9.52   9.68   12.70   10.87   55.00
1897.10   1710.04   33.08   2.59   9.79   9.50   10.04   9.83   9.53   9.68   12.68   10.71   55.00
1897.20   1710.12   34.31   3.07   9.70   9.44   10.01   9.77   9.51   9.67   12.66   10.88   55.00
1897.30   1710.21   36.88   3.23   9.59   9.28   9.93   9.70   9.51   9.70   12.66   10.87   55.00
1897.40   1710.29   38.38   3.14   9.42   9.18   9.85   9.57   9.57   9.71   12.75   10.84   55.00
1897.50   1710.38   38.18   2.96   9.40   9.10   9.84   9.57   9.54   9.73   12.79   10.95   55.55
1897.60   1710.46   38.55   3.21   9.41   9.16   9.85   9.59   9.58   9.74   12.83   10.74   55.99
1897.70   1710.55   36.27   2.97   9.51   9.26   9.91   9.64   9.60   9.76   12.83   10.81   55.99
1897.80   1710.64   35.19   3.24   9.65   9.38   9.99   9.76   9.64   9.78   12.79   10.77   55.99
1897.90   1710.72   34.72   2.63   9.74   9.51   10.06   9.85   9.67   9.79   12.85   10.96   55.99
1898.00   1710.81   34.72   3.66   9.87   9.64   10.13   9.91   9.72   9.81   12.86   10.89   55.99
1898.10   1710.89   32.97   3.88   9.99   9.72   10.20   10.02   9.71   9.84   12.88   10.95   55.99
1898.20   1710.98   34.53   3.07   10.08   9.86   10.26   10.12   9.79   9.86   12.82   10.90   55.99
1898.30   1711.06   32.29   3.52   10.17   9.97   10.30   10.18   9.82   9.89   12.92   10.91   55.99
1898.40   1711.15   34.56   3.29   10.27   10.09   10.37   10.26   9.85   9.90   12.90   10.90   55.99
1898.50   1711.23   29.54   3.15   10.32   10.11   10.40   10.30   9.87   9.93   12.87   10.90   55.99
1898.60   1711.32   30.97   3.15   10.29   10.12   10.39   10.27   9.94   9.95   12.93   10.88   55.99
1898.70   1711.40   29.47   2.75   10.25   10.08   10.38   10.28   9.93   9.95   12.94   11.03   55.99
1898.80   1711.49   32.77   3.62   10.25   10.05   10.37   10.25   9.93   9.97   12.98   10.96   55.99
1898.90   1711.57   32.60   2.64   10.23   10.01   10.38   10.25   9.91   9.97   12.92   11.01   56.13
1899.00   1711.66   31.51   3.02   10.18   9.97   10.38   10.25   9.92   9.98   13.00   11.13   57.00
1899.10   1711.74   33.93   3.38   10.14   9.91   10.34   10.19   9.93   9.99   13.00   11.02   57.00
1899.20   1711.83   37.15   2.82   10.12   9.90   10.32   10.16   9.93   9.99   12.99   11.05   57.00
1899.30   1711.91   36.54   2.72   10.12   9.86   10.32   10.17   9.90   10.00   12.98   11.00   57.00
1899.40   1712.00   33.36   3.69   10.08   9.81   10.31   10.14   9.88   10.01   13.06   11.02   57.00
1899.50   1712.09   31.73   3.17   10.03   9.76   10.30   10.11   9.86   9.99   13.06   11.21   57.00
1899.60   1712.17   35.83   2.98   9.99   9.72   10.28   10.07   9.87   9.99   13.12   11.08   57.00
1899.70   1712.26   37.37   3.64   10.00   9.71   10.27   10.04   9.85   9.99   13.06   10.92   57.00
1899.80   1712.34   33.38   4.14   10.01   9.70   10.28   10.07   9.83   9.98   13.01   11.09   57.00
1899.90   1712.43   31.76   3.12   10.00   9.70   10.27   10.04   9.82   9.97   13.06   10.99   57.00
1900.00   1712.51   31.19   3.82   9.95   9.66   10.24   10.03   9.82   9.97   13.03   11.05   57.00
