~Version Information Section
VERS.           2.0     :   CWLS log ASCII Standard -VERSION 2.0
WRAP.           NO      :   One line per depth step
#
~Well Information Section
#MNEM.UNIT     VALUE/NAME     DESCRIPTION
#--------     ------------     -----------------
STRT.M                        840.30                     : START DEPTH
STOP.M                        2267.00                    : STOP DEPTH
STEP.M                        0.100                      : STEP
STRT_TVD.M                    797.19                     : START TVD
STOP_TVD.M                    2013.28                    : STOP TVD
DEPTH_SCALE.                  MD (meters)                : DEPTH SCALE
NULL.                         -999.25                    : NULL VALUE
DATE.                         2014-12-22                 : DATE
JOBN.                         ORYX_DD11                  : JOB NUMBER
UWI.                          DD 11                      : UNIQUE WELL ID
API.                          DD 11                      : API NUMBER
COMP.                         ORYX Petroleum LTD.        : COMPANY
WELL.                         Damir Dagh-11              : WELL
FLD.                          Hawler                     : FIELD
LOC.                          Damir Dagh                 : LOCATION
CNTY.                         Erbil                      : COUNTY
STAT.                         Kurdistan                  : STATE
PROV.                         Kurdistan                  : PROVINCE
CTRY.                         Iraq                       : COUNTRY
well_Location.                Damir Dagh                 : WELL LOCATION
well_Latitude.                N36 12 11.328              : WELL LATITUDE
well_Longitude.               E43 43 57.3742             : WELL LONGITUDE
well_Section.                                            : SECTION
well_Township.                                           : TOWNSHIP
well_Range.                                              : RANGE
well_Datum.                   MSL                        : PERMANENT DEPTH DATUM
well_Elevation.               0                          : PERMANENT DEPTH ELEVATION
well_KBElevation.             456.3                      : KELLY BUSHING ELEVATION
well_DFElevation.             456.3                      : DRILL FLOOR ELEVATION
well_groundElevation.          450.8                      : GROUND/SEA FLOOR ELEVATION
MDF.                          KELLY BUSHING              : MWD DEPTH MEASURED FROM
surveySection_dTimStart.          25-Nov-2014                : MWD Start Date
surveySection_mdStart.          50                         : MWD Start Depth
surveySection_dTimEnd.                                     : MWD End Date
surveySection_mdEnd.                                     : MWD End Depth
wellbore_mdCurrent.           0.0                        : Total Depth
OS1.                          Downhole Vibration         : Other Services 1
OS2.                          DH Temp.                   : Other Services 2
OS3.                                                     : Other Services 3
OS4.                                                     : Other Services 4
nameOperator.                 EDC                        : Drilling Contractor
nameRig.                      EDC-22                     : Rig Name
typeRig.                      Land Rig                   : Rig Type
OCN1.                         Richard hesse              : Oil Company Name 1
OCN2.                         George Bagheri             : Oil Company Name 2
OCN3.                                                    : Oil Company Name 3
OCN4.                                                    : Oil Company Name 4
nameDirectionalCompany.          OilServ                    : Directional Company Name
DCN1.                         Graham Chalmers            : Directional Company Name 1
DCN2.                         Omid Mcaryan               : Directional Company Name 2
DCN3.                                                    : Directional Company Name 3
DCN4.                                                    : Directional Company Name 4
SRVC.                         OilServ                    : SERVICE COMPANY
SCN1.                         Eugene Kravtsov            : Service Company Name 1
SCN2.                         Astak George               : Service Company Name 2
SCN3.                         Waqas Ahmad Tehami         : Service Company Name 3
SCN4.                         RE'al                      : Service Company Name 4
dTimCreation.                 2014/12/22                 : DATE FILE CREATED
#
~Curve Information Section
#MNEM.UNIT         API CODE       Curve Description       
#----------        -----------    -------------------------------
DEPTH.M                       :  1       DEPTH
TVD.M                         :  2       TRUE VERTICAL DEPTH
GRCM.API/sec        :  3 GAMMA RAY BOREHOLE CORRECTED
ROP.m/hr        :  4 RATE OF PENETRATION
RPCECHM.ohm-m        :  5 RESISTIVITY PHASE DIFF. 2 MHZ LONG SPACING
RPCECSHM.ohm-m        :  6 RESISTIVITY PHASE DIFF. 2 MHZ SHORT SPACING
RPCECLM.ohm-m        :  7 RESISTIVITY PHASE DIFF. 400 KHZ LONG SPACING
RPCECSLM.ohm-m        :  8 RESISTIVITY PHASE DIFF. 400 KHZ SHORT SPACING
RACECSHM.ohm-m        :  9 RESISTIVITY ATTEN. 2 MHZ SHORT SPACING
RACECHM.ohm-m        :  10 RESISTIVITY ATTEN. 2 MHZ LONG SPACING
RACECLM.ohm-m        :  11 RESISTIVITY ATTEN. 400 KHZ LONG SPACING
RACECSLM.ohm-m        :  12 RESISTIVITY ATTEN. 400 KHZ SHORT SPACING
TRM.Celsius        :  13 RESISTIVITY COMPENSATION TEMPERATURE
~A
# ...
2157.00   1924.09   22.32   12.69   66.44   54.72   80.99   65.91   92.99   99.69   61.90   31.55   67.00
2157.10   1924.17   22.75   10.05   60.71   52.18   75.95   61.61   93.72   99.69   61.90   31.55   67.00
2157.20   1924.25   21.75   7.46   57.66   46.35   70.93   55.62   94.44   99.69   61.90   31.55   67.00
2157.30   1924.34   26.10   15.14   54.29   44.34   67.14   51.31   95.17   99.68   61.90   31.55   67.00
2157.40   1924.42   25.30   6.64   52.02   41.85   64.57   49.50   95.90   99.68   61.90   31.55   67.00
2157.50   1924.50   29.54   11.00   53.85   42.14   66.95   49.71   87.60   99.68   61.90   31.55   67.00
2157.60   1924.58   31.45   6.59   57.29   44.20   69.75   51.24   88.21   99.68   61.90   31.55   67.00
2157.70   1924.66   43.88   10.64   65.10   49.12   78.02   56.82   89.10   99.68   61.90   31.55   67.00
2157.80   1924.74   61.57   11.12   71.35   53.48   85.47   61.60   94.03   99.68   61.90   31.55   67.00
2157.90   1924.82   68.15   11.67   77.51   57.81   93.30   67.28   92.16   99.68   61.90   31.55   67.00
2158.00   1924.90   57.67   18.03   82.86   62.50   98.08   69.53   92.16   99.68   61.90   31.55   67.00
2158.10   1924.98   48.92   17.31   84.34   62.03   99.71   68.93   92.17   99.67   61.90   31.55   67.00
2158.20   1925.07   44.91   10.52   84.04   59.52   100.10   67.38   92.17   99.67   61.90   31.55   67.00
2158.30   1925.15   37.95   6.74   83.53   60.15   99.27   68.17   92.18   99.67   61.90   31.55   67.00
2158.40   1925.23   33.39   12.28   84.63   59.46   100.27   67.39   92.18   99.67   61.91   31.55   67.00
2158.50   1925.31   34.35   24.70   85.39   60.13   101.31   68.35   92.19   99.67   61.91   31.55   67.00
2158.60   1925.39   28.64   11.87   86.37   60.15   101.95   67.71   92.19   99.67   61.91   31.55   67.00
2158.70   1925.47   24.84   6.19   86.26   60.39   102.65   67.74   92.20   99.67   61.91   31.54   67.00
2158.80   1925.55   20.63   9.41   85.64   60.72   103.37   68.08   92.20   99.67   61.91   31.54   67.00
2158.90   1925.63   18.64   6.54   85.30   59.61   101.34   68.38   92.21   99.66   61.91   31.54   67.00
2159.00   1925.71   18.07   10.89   90.36   62.54   105.47   71.38   92.21   99.66   61.91   31.54   67.00
2159.10   1925.79   19.27   10.57   96.86   67.70   114.59   77.42   92.21   99.66   61.91   31.54   67.00
2159.20   1925.88   17.76   30.34   109.77   77.19   130.64   86.57   92.22   99.66   61.91   31.54   67.00
2159.30   1925.96   19.65   71.83   118.21   83.82   140.08   92.80   92.22   99.66   61.91   31.54   67.00
2159.40   1926.04   17.29   49.24   126.78   89.62   148.36   99.25   92.23   99.66   61.91   31.54   67.00
2159.50   1926.12   17.79   51.91   139.86   100.40   165.94   111.66   92.23   99.66   61.91   31.54   67.00
2159.60   1926.20   20.76   22.01   159.71   121.87   188.67   136.20   92.24   99.66   61.91   31.54   67.00
2159.70   1926.28   23.24   25.73   176.80   139.53   211.49   157.18   92.24   99.65   61.91   31.54   67.00
2159.80   1926.36   24.03   15.56   177.20   134.88   210.00   150.19   92.25   99.65   61.91   31.54   67.00
2159.90   1926.44   25.84   20.21   176.64   130.94   212.27   147.60   92.25   99.65   61.91   31.54   67.00
2160.00   1926.52   27.69   14.43   168.91   130.01   202.97   146.98   92.26   99.65   61.91   31.54   67.00
2160.10   1926.61   29.75   20.01   165.33   125.10   200.60   141.79   92.26   99.65   61.91   31.54   67.00
2160.20   1926.69   34.47   16.81   159.64   125.20   191.49   137.53   92.27   99.65   61.91   31.54   67.00
2160.30   1926.77   41.84   11.84   154.72   121.68   187.66   135.15   92.27   99.65   61.91   31.54   67.00
2160.40   1926.85   44.94   4.25   151.11   118.64   183.42   133.88   92.28   99.65   61.91   31.54   67.00
2160.50   1926.93   44.82   10.31   150.18   116.97   183.62   133.90   92.28   99.64   61.91   31.54   67.00
2160.60   1927.01   38.25   9.24   142.49   105.21   172.30   116.78   92.29   99.64   61.91   31.54   67.00
2160.70   1927.09   40.91   10.41   138.33   99.44   170.13   112.55   92.29   99.64   61.91   31.54   67.00
2160.80   1927.17   39.29   18.38   142.99   101.38   173.71   117.59   92.30   99.64   61.91   31.54   67.00
2160.90   1927.25   37.34   12.98   141.08   100.49   171.41   112.46   92.30   99.64   61.91   31.54   67.00
2161.00   1927.33   40.04   39.51   144.86   102.70   178.11   116.10   92.30   99.64   61.91   31.54   67.00
2161.10   1927.42   40.34   79.37   149.93   106.80   182.85   121.73   92.31   99.64   61.91   31.54   67.00
2161.20   1927.50   47.07   7.55   165.59   120.04   203.13   135.90   92.31   99.64   61.91   31.54   67.00
2161.30   1927.58   55.86   24.33   180.29   128.50   221.39   150.60   92.32   99.63   61.91   31.54   67.00
2161.40   1927.66   54.01   21.92   178.59   126.19   221.54   146.57   92.32   99.63   61.91   31.54   67.00
2161.50   1927.74   44.75   0.59   175.13   120.60   216.92   136.99   92.33   99.63   61.91   31.54   67.00
2161.60   1927.82   34.57   14.31   184.09   132.09   234.80   149.92   92.33   99.63   61.91   31.54   67.00
2161.70   1927.90   30.13   4.37   202.24   145.26   248.24   178.06   92.34   99.63   61.91   31.54   67.00
2161.80   1927.98   28.43   10.38   209.49   156.52   261.40   175.03   92.34   99.63   61.91   31.54   67.00
2161.90   1928.06   37.24   9.82   195.79   146.04   252.97   169.49   92.35   99.63   61.91   31.54   67.00
2162.00   1928.15   42.56   3.58   182.90   137.98   235.94   151.02   92.35   99.63   61.91   31.54   67.00
2162.10   1928.23   35.36   5.75   179.97   126.29   230.37   141.30   92.36   99.62   61.91   31.54   67.00
2162.20   1928.31   32.57   6.48   189.68   130.03   238.12   145.27   92.36   99.62   61.91   31.54   67.00
2162.30   1928.39   30.69   4.48   204.75   140.17   253.46   165.77   92.37   99.62   61.91   31.54   67.00
2162.40   1928.47   24.90   7.66   213.87   150.84   272.40   178.62   92.37   99.62   61.91   31.54   67.00
2162.50   1928.55   22.25   6.00   222.87   168.41   288.55   190.08   92.38   99.62   61.91   31.54   67.00
2162.60   1928.63   25.98   6.22   238.94   186.10   316.37   205.21   92.38   99.62   61.91   31.54   67.00
2162.70   1928.71   24.30   5.19   268.84   212.61   348.94   237.11   92.38   99.62   61.91   31.54   67.00
2162.80   1928.79   23.86   4.97   290.88   224.29   378.07   246.90   92.39   99.62   61.92   31.54   67.00
2162.90   1928.87   24.25   4.50   283.44   198.05   363.00   219.72   92.39   99.61   61.92   31.54   67.00
2163.00   1928.96   26.44   3.85   256.48   174.94   343.48   201.40   92.40   99.61   61.92   31.54   67.00
2163.10   1929.04   32.50   4.56   246.37   164.48   311.74   193.76   92.40   99.61   61.92   31.54   67.00
2163.20   1929.12   28.86   5.38   255.91   168.30   321.69   192.06   92.41   99.61   61.92   31.54   67.00
2163.30   1929.20   26.36   7.40   271.52   184.46   337.85   213.18   92.41   99.61   61.92   31.54   67.00
2163.40   1929.28   29.40   7.86   282.29   203.50   362.96   237.52   92.42   99.61   61.92   31.54   67.00
2163.50   1929.36   24.12   11.37   289.55   224.65   402.06   265.57   92.42   99.61   61.92   31.54   67.00
2163.60   1929.44   25.31   10.19   310.57   218.54   355.04   250.49   92.43   99.61   61.92   31.54   67.00
2163.70   1929.52   25.57   9.35   311.27   188.66   393.72   245.72   92.43   99.60   61.92   31.54   67.00
2163.80   1929.60   27.18   5.97   313.27   212.98   403.99   228.96   92.44   99.60   61.92   31.54   67.00
2163.90   1929.68   27.70   7.28   294.98   196.44   382.01   222.91   92.44   99.60   61.92   31.54   67.00
2164.00   1929.77   26.05   8.17   290.69   193.61   398.26   216.39   92.45   99.60   61.92   31.54   67.00
2164.10   1929.85   27.90   8.79   289.02   194.71   426.39   209.33   92.45   99.60   61.92   31.54   67.00
2164.20   1929.93   22.94   10.11   293.45   195.79   388.38   216.44   92.46   99.60   61.92   31.54   67.00
2164.30   1930.01   18.85   8.67   290.46   176.89   364.15   204.31   92.46   99.60   61.92   31.54   67.00
