~Version Information Section
VERS.           2.0     :   CWLS log ASCII Standard -VERSION 2.0
WRAP.           NO      :   One line per depth step
#
~Well Information Section
#MNEM.UNIT     VALUE/NAME     DESCRIPTION
#--------     ------------     -----------------
STRT.M                        840.30                     : START DEPTH
STOP.M                        2267.00                    : STOP DEPTH
STEP.M                        0.100                      : STEP
STRT_TVD.M                    797.19                     : START TVD
STOP_TVD.M                    2013.28                    : STOP TVD
DEPTH_SCALE.                  MD (meters)                : DEPTH SCALE
NULL.                         -999.25                    : NULL VALUE
DATE.                         2014-12-22                 : DATE
JOBN.                         ORYX_DD11                  : JOB NUMBER
UWI.                          DD 11                      : UNIQUE WELL ID
API.                          DD 11                      : API NUMBER
COMP.                         ORYX Petroleum LTD.        : COMPANY
WELL.                         Damir Dagh-11              : WELL
FLD.                          Hawler                     : FIELD
LOC.                          Damir Dagh                 : LOCATION
CNTY.                         Erbil                      : COUNTY
STAT.                         Kurdistan                  : STATE
PROV.                         Kurdistan                  : PROVINCE
CTRY.                         Iraq                       : COUNTRY
well_Location.                Damir Dagh                 : WELL LOCATION
well_Latitude.                N36 12 11.328              : WELL LATITUDE
well_Longitude.               E43 43 57.3742             : WELL LONGITUDE
well_Section.                                            : SECTION
well_Township.                                           : TOWNSHIP
well_Range.                                              : RANGE
well_Datum.                   MSL                        : PERMANENT DEPTH DATUM
well_Elevation.               0                          : PERMANENT DEPTH ELEVATION
well_KBElevation.             456.3                      : KELLY BUSHING ELEVATION
well_DFElevation.             456.3                      : DRILL FLOOR ELEVATION
well_groundElevation.          450.8                      : GROUND/SEA FLOOR ELEVATION
MDF.                          KELLY BUSHING              : MWD DEPTH MEASURED FROM
surveySection_dTimStart.          25-Nov-2014                : MWD Start Date
surveySection_mdStart.          50                         : MWD Start Depth
surveySection_dTimEnd.                                     : MWD End Date
surveySection_mdEnd.                                     : MWD End Depth
wellbore_mdCurrent.           0.0                        : Total Depth
OS1.                          Downhole Vibration         : Other Services 1
OS2.                          DH Temp.                   : Other Services 2
OS3.                                                     : Other Services 3
OS4.                                                     : Other Services 4
nameOperator.                 EDC                        : Drilling Contractor
nameRig.                      EDC-22                     : Rig Name
typeRig.                      Land Rig                   : Rig Type
OCN1.                         Richard hesse              : Oil Company Name 1
OCN2.                         George Bagheri             : Oil Company Name 2
OCN3.                                                    : Oil Company Name 3
OCN4.                                                    : Oil Company Name 4
nameDirectionalCompany.          OilServ                    : Directional Company Name
DCN1.                         Graham Chalmers            : Directional Company Name 1
DCN2.                         Omid Mcaryan               : Directional Company Name 2
DCN3.                                                    : Directional Company Name 3
DCN4.                                                    : Directional Company Name 4
SRVC.                         OilServ                    : SERVICE COMPANY
SCN1.                         Eugene Kravtsov            : Service Company Name 1
SCN2.                         Astak George               : Service Company Name 2
SCN3.                         Waqas Ahmad Tehami         : Service Company Name 3
SCN4.                         RE'al                      : Service Company Name 4
dTimCreation.                 2014/12/22                 : DATE FILE CREATED
#
~Curve Information Section
#MNEM.UNIT         API CODE       Curve Description       
#----------        -----------    -------------------------------
DEPTH.M                       :  1       DEPTH
TVD.M                         :  2       TRUE VERTICAL DEPTH
GRCM.API/sec        :  3 GAMMA RAY BOREHOLE CORRECTED
ROP.m/hr        :  4 RATE OF PENETRATION
RPCECHM.ohm-m        :  5 RESISTIVITY PHASE DIFF. 2 MHZ LONG SPACING
RPCECSHM.ohm-m        :  6 RESISTIVITY PHASE DIFF. 2 MHZ SHORT SPACING
RPCECLM.ohm-m        :  7 RESISTIVITY PHASE DIFF. 400 KHZ LONG SPACING
RPCECSLM.ohm-m        :  8 RESISTIVITY PHASE DIFF. 400 KHZ SHORT SPACING
RACECSHM.ohm-m        :  9 RESISTIVITY ATTEN. 2 MHZ SHORT SPACING
RACECHM.ohm-m        :  10 RESISTIVITY ATTEN. 2 MHZ LONG SPACING
RACECLM.ohm-m        :  11 RESISTIVITY ATTEN. 400 KHZ LONG SPACING
RACECSLM.ohm-m        :  12 RESISTIVITY ATTEN. 400 KHZ SHORT SPACING
TRM.Celsius        :  13 RESISTIVITY COMPENSATION TEMPERATURE
~A
# ...
1414.10   1294.06   32.33   12.34   2.55   2.45   2.56   2.50   2.54   2.60   2.55   2.45   70.00
1414.20   1294.14   30.81   14.17   2.59   2.45   2.56   2.50   2.48   2.56   2.52   2.41   70.00
1414.30   1294.23   30.27   18.26   2.62   2.47   2.57   2.49   2.42   2.51   2.50   2.40   70.00
1414.40   1294.32   33.28   11.48   2.63   2.49   2.57   2.48   2.37   2.47   2.49   2.39   70.00
1414.50   1294.40   31.68   16.88   2.64   2.43   2.55   2.43   2.31   2.44   2.47   2.35   70.00
1414.60   1294.49   31.44   15.64   2.41   2.14   2.48   2.28   2.30   2.49   2.47   2.33   70.00
1414.70   1294.58   35.11   18.94   1.97   1.76   2.25   2.05   2.30   2.55   2.49   2.34   70.00
1414.80   1294.66   33.19   18.11   1.87   1.68   2.19   1.99   2.23   2.48   2.48   2.35   70.00
1414.90   1294.75   35.65   13.76   1.81   1.66   2.14   1.96   2.06   2.32   2.47   2.31   70.00
1415.00   1294.84   35.74   19.11   1.75   1.64   2.11   1.94   1.95   2.19   2.48   2.31   70.00
1415.10   1294.92   32.87   10.39   1.72   1.62   2.10   1.93   1.91   2.15   2.49   2.32   70.00
1415.20   1295.01   35.32   10.78   1.73   1.67   2.11   1.95   1.91   2.16   2.49   2.31   70.00
1415.30   1295.10   36.47   12.87   1.85   1.80   2.19   2.04   1.96   2.22   2.50   2.32   70.00
1415.40   1295.19   34.19   19.34   2.30   2.16   2.43   2.29   2.13   2.39   2.52   2.37   70.00
1415.50   1295.27   32.16   15.96   2.66   2.43   2.62   2.47   2.26   2.51   2.54   2.39   70.00
1415.60   1295.36   31.86   22.18   2.96   2.61   2.78   2.59   2.44   2.67   2.57   2.46   70.00
1415.70   1295.45   32.88   22.63   3.01   2.70   2.85   2.65   2.54   2.73   2.59   2.48   70.00
1415.80   1295.53   33.55   19.15   2.91   2.67   2.80   2.67   2.55   2.72   2.60   2.49   70.00
1415.90   1295.62   32.63   14.34   2.85   2.59   2.77   2.65   2.56   2.69   2.60   2.51   70.00
1416.00   1295.71   31.01   14.30   2.53   2.47   2.65   2.60   2.63   2.69   2.63   2.55   70.00
1416.10   1295.79   28.46   8.53   2.43   2.38   2.58   2.57   2.72   2.71   2.64   2.57   70.00
1416.20   1295.88   28.14   14.46   2.40   2.38   2.57   2.56   2.79   2.74   2.63   2.60   70.00
1416.30   1295.97   29.97   22.71   2.49   2.36   2.59   2.54   2.79   2.73   2.64   2.58   70.00
1416.40   1296.06   33.17   11.02   2.63   2.49   2.64   2.60   2.68   2.64   2.64   2.57   70.00
1416.50   1296.14   33.31   13.65   2.73   2.54   2.66   2.60   2.65   2.64   2.63   2.55   70.00
1416.60   1296.23   34.38   15.78   2.97   2.85   2.73   2.68   2.51   2.51   2.62   2.51   70.00
1416.70   1296.32   35.64   19.18   2.95   2.81   2.72   2.67   2.52   2.50   2.63   2.50   70.73
1416.80   1296.40   34.27   18.04   2.96   2.82   2.72   2.67   2.50   2.52   2.63   2.51   71.00
1416.90   1296.49   35.24   23.69   2.68   2.62   2.61   2.56   2.40   2.43   2.64   2.48   71.00
1417.00   1296.58   31.47   14.60   2.60   2.59   2.56   2.53   2.38   2.40   2.64   2.49   71.00
1417.10   1296.66   31.26   20.33   2.43   2.45   2.50   2.46   2.36   2.40   2.67   2.50   71.00
1417.20   1296.75   30.95   17.41   2.41   2.36   2.50   2.43   2.38   2.42   2.68   2.52   71.00
1417.30   1296.84   32.36   15.27   2.42   2.34   2.50   2.42   2.44   2.46   2.69   2.52   71.00
1417.40   1296.92   34.80   13.85   2.38   2.30   2.51   2.45   2.48   2.54   2.73   2.55   71.00
1417.50   1297.01   34.02   16.80   2.42   2.27   2.53   2.43   2.57   2.63   2.74   2.58   71.00
1417.60   1297.10   31.58   31.59   2.40   2.23   2.53   2.41   2.60   2.69   2.77   2.62   71.00
1417.70   1297.19   31.21   14.17   2.33   2.21   2.54   2.41   2.62   2.74   2.78   2.64   71.00
1417.80   1297.27   34.42   13.71   2.47   2.36   2.62   2.50   2.49   2.62   2.82   2.66   71.00
1417.90   1297.36   36.81   12.05   2.44   2.36   2.62   2.51   2.44   2.62   2.84   2.68   71.00
1418.00   1297.45   38.57   14.54   2.38   2.28   2.61   2.48   2.46   2.65   2.86   2.70   71.00
1418.10   1297.53   40.39   19.84   2.35   2.26   2.62   2.49   2.54   2.73   2.88   2.73   71.00
1418.20   1297.62   35.67   19.29   2.39   2.30   2.62   2.51   2.57   2.74   2.89   2.73   71.00
1418.30   1297.71   34.88   15.23   2.55   2.51   2.74   2.62   2.61   2.75   2.88   2.74   71.00
1418.40   1297.79   33.66   33.41   2.88   2.59   2.86   2.73   2.62   2.71   2.91   2.77   71.00
1418.50   1297.88   34.10   11.00   2.88   2.66   2.88   2.77   2.62   2.74   2.90   2.79   71.00
1418.60   1297.97   33.05   15.06   2.91   2.71   2.89   2.79   2.67   2.77   2.92   2.81   71.00
1418.70   1298.05   36.00   17.46   2.92   2.71   2.93   2.80   2.82   2.94   2.96   2.83   71.00
1418.80   1298.14   30.64   12.09   2.87   2.67   2.96   2.85   2.84   3.03   3.00   2.83   71.00
1418.90   1298.23   31.89   17.66   2.87   2.71   2.96   2.86   2.88   3.04   3.00   2.90   71.00
1419.00   1298.32   31.60   16.25   2.93   2.71   2.97   2.87   2.92   3.05   3.01   2.89   71.00
1419.10   1298.40   31.01   11.27   2.91   2.82   3.00   2.92   3.01   3.10   3.00   2.91   71.00
1419.20   1298.49   31.01   11.38   2.95   2.84   3.04   2.94   3.10   3.13   3.01   2.87   71.00
1419.30   1298.58   30.82   16.88   3.10   2.93   3.10   2.97   3.11   3.14   3.00   2.89   71.00
1419.40   1298.66   28.77   10.53   3.13   2.89   3.10   2.97   3.03   3.11   2.99   2.90   71.00
1419.50   1298.75   30.46   17.98   3.05   2.78   3.07   2.91   3.00   3.11   2.99   2.88   71.00
1419.60   1298.84   32.61   8.76   2.90   2.62   3.01   2.81   3.01   3.14   3.00   2.87   71.00
1419.70   1298.92   35.09   17.85   2.78   2.50   2.94   2.74   3.01   3.17   3.01   2.87   71.00
1419.80   1299.01   36.25   14.29   2.82   2.55   2.95   2.79   3.02   3.15   3.01   2.87   71.00
1419.90   1299.10   34.74   18.78   2.80   2.53   2.94   2.80   3.06   3.11   3.03   2.90   71.00
1420.00   1299.18   34.86   16.46   2.72   2.47   2.94   2.77   3.04   3.15   3.05   2.93   71.00
1420.10   1299.27   34.47   8.13   2.66   2.38   2.94   2.73   3.06   3.25   3.08   2.93   71.00
1420.20   1299.36   36.19   19.07   2.70   2.42   2.96   2.74   3.10   3.27   3.11   2.96   71.00
1420.30   1299.45   35.69   18.11   2.80   2.51   3.04   2.80   3.07   3.26   3.10   2.94   71.00
1420.40   1299.53   35.52   55.14   3.03   2.71   3.16   2.93   3.09   3.23   3.10   2.97   71.00
1420.50   1299.62   33.33   11.85   3.27   2.93   3.30   3.07   3.14   3.20   3.10   2.99   71.00
1420.60   1299.71   31.43   27.43   3.42   3.08   3.37   3.20   3.17   3.28   3.12   3.05   71.00
1420.70   1299.79   29.71   15.28   3.45   3.13   3.42   3.26   3.29   3.36   3.13   3.11   71.00
1420.80   1299.88   28.56   24.08   3.43   3.12   3.41   3.26   3.29   3.40   3.14   3.11   71.00
1420.90   1299.97   32.76   22.77   3.43   3.12   3.43   3.28   3.32   3.36   3.13   3.12   71.00
1421.00   1300.05   33.61   18.46   3.46   3.14   3.43   3.30   3.30   3.38   3.15   3.12   71.00
1421.10   1300.14   28.83   15.18   3.55   3.27   3.48   3.39   3.33   3.40   3.14   3.12   71.00
1421.20   1300.23   28.61   14.99   3.64   3.41   3.54   3.48   3.36   3.43   3.12   3.11   71.00
1421.30   1300.31   30.03   27.79   3.98   3.81   3.71   3.71   3.44   3.53   3.08   3.13   71.00
1421.40   1300.40   28.07   13.45   4.17   3.92   3.80   3.80   3.56   3.49   3.06   3.14   71.00
1421.50   1300.49   25.97   22.68   4.29   4.01   3.81   3.83   3.57   3.48   3.05   3.14   71.00
1421.60   1300.57   26.00   26.84   4.26   4.12   3.85   3.86   3.47   3.56   3.01   3.12   71.00
1421.70   1300.66   26.71   16.11   4.21   4.03   3.80   3.83   3.49   3.57   2.99   3.10   71.00
1421.80   1300.75   27.85   20.85   4.12   4.03   3.73   3.77   3.40   3.51   2.91   3.02   71.00
1421.90   1300.84   27.57   21.21   4.07   3.95   3.67   3.70   3.33   3.42   2.81   2.92   71.00
1422.00   1300.92   27.11   22.76   3.98   3.78   3.59   3.62   3.24   3.29   2.73   2.85   71.00
1422.10   1301.01   28.80   16.56   3.85   3.59   3.45   3.51   3.20   3.19   2.63   2.78   71.00
1422.20   1301.10   32.89   15.34   3.80   3.57   3.37   3.44   3.17   3.12   2.58   2.72   71.00
