~Version Information Section
VERS.           2.0     :   CWLS log ASCII Standard -VERSION 2.0
WRAP.           NO      :   One line per depth step
#
~Well Information Section
#MNEM.UNIT     VALUE/NAME     DESCRIPTION
#--------     ------------     -----------------
STRT.M                        840.30                     : START DEPTH
STOP.M                        2267.00                    : STOP DEPTH
STEP.M                        0.100                      : STEP
STRT_TVD.M                    797.19                     : START TVD
STOP_TVD.M                    2013.28                    : STOP TVD
DEPTH_SCALE.                  MD (meters)                : DEPTH SCALE
NULL.                         -999.25                    : NULL VALUE
DATE.                         2014-12-22                 : DATE
JOBN.                         ORYX_DD11                  : JOB NUMBER
UWI.                          DD 11                      : UNIQUE WELL ID
API.                          DD 11                      : API NUMBER
COMP.                         ORYX Petroleum LTD.        : COMPANY
WELL.                         Damir Dagh-11              : WELL
FLD.                          Hawler                     : FIELD
LOC.                          Damir Dagh                 : LOCATION
CNTY.                         Erbil                      : COUNTY
STAT.                         Kurdistan                  : STATE
PROV.                         Kurdistan                  : PROVINCE
CTRY.                         Iraq                       : COUNTRY
well_Location.                Damir Dagh                 : WELL LOCATION
well_Latitude.                N36 12 11.328              : WELL LATITUDE
well_Longitude.               E43 43 57.3742             : WELL LONGITUDE
well_Section.                                            : SECTION
well_Township.                                           : TOWNSHIP
well_Range.                                              : RANGE
well_Datum.                   MSL                        : PERMANENT DEPTH DATUM
well_Elevation.               0                          : PERMANENT DEPTH ELEVATION
well_KBElevation.             456.3                      : KELLY BUSHING ELEVATION
well_DFElevation.             456.3                      : DRILL FLOOR ELEVATION
well_groundElevation.          450.8                      : GROUND/SEA FLOOR ELEVATION
MDF.                          KELLY BUSHING              : MWD DEPTH MEASURED FROM
surveySection_dTimStart.          25-Nov-2014                : MWD Start Date
surveySection_mdStart.          50                         : MWD Start Depth
surveySection_dTimEnd.                                     : MWD End Date
surveySection_mdEnd.                                     : MWD End Depth
wellbore_mdCurrent.           0.0                        : Total Depth
OS1.                          Downhole Vibration         : Other Services 1
OS2.                          DH Temp.                   : Other Services 2
OS3.                                                     : Other Services 3
OS4.                                                     : Other Services 4
nameOperator.                 EDC                        : Drilling Contractor
nameRig.                      EDC-22                     : Rig Name
typeRig.                      Land Rig                   : Rig Type
OCN1.                         Richard hesse              : Oil Company Name 1
OCN2.                         George Bagheri             : Oil Company Name 2
OCN3.                                                    : Oil Company Name 3
OCN4.                                                    : Oil Company Name 4
nameDirectionalCompany.          OilServ                    : Directional Company Name
DCN1.                         Graham Chalmers            : Directional Company Name 1
DCN2.                         Omid Mcaryan               : Directional Company Name 2
DCN3.                                                    : Directional Company Name 3
DCN4.                                                    : Directional Company Name 4
SRVC.                         OilServ                    : SERVICE COMPANY
SCN1.                         Eugene Kravtsov            : Service Company Name 1
SCN2.                         Astak George               : Service Company Name 2
SCN3.                         Waqas Ahmad Tehami         : Service Company Name 3
SCN4.                         RE'al                      : Service Company Name 4
dTimCreation.                 2014/12/22                 : DATE FILE CREATED
#
~Curve Information Section
#MNEM.UNIT         API CODE       Curve Description       
#----------        -----------    -------------------------------
DEPTH.M                       :  1       DEPTH
TVD.M                         :  2       TRUE VERTICAL DEPTH
GRCM.API/sec        :  3 GAMMA RAY BOREHOLE CORRECTED
ROP.m/hr        :  4 RATE OF PENETRATION
RPCECHM.ohm-m        :  5 RESISTIVITY PHASE DIFF. 2 MHZ LONG SPACING
RPCECSHM.ohm-m        :  6 RESISTIVITY PHASE DIFF. 2 MHZ SHORT SPACING
RPCECLM.ohm-m        :  7 RESISTIVITY PHASE DIFF. 400 KHZ LONG SPACING
RPCECSLM.ohm-m        :  8 RESISTIVITY PHASE DIFF. 400 KHZ SHORT SPACING
RACECSHM.ohm-m        :  9 RESISTIVITY ATTEN. 2 MHZ SHORT SPACING
RACECHM.ohm-m        :  10 RESISTIVITY ATTEN. 2 MHZ LONG SPACING
RACECLM.ohm-m        :  11 RESISTIVITY ATTEN. 400 KHZ LONG SPACING
RACECSLM.ohm-m        :  12 RESISTIVITY ATTEN. 400 KHZ SHORT SPACING
TRM.Celsius        :  13 RESISTIVITY COMPENSATION TEMPERATURE
~A
# ...
1039.40   969.58   37.04   10.84   4.18   3.90   4.06   3.92   3.62   3.75   3.53   3.47   62.00
1039.50   969.66   34.80   9.21   3.66   3.44   3.79   3.65   3.50   3.71   3.57   3.48   61.60
1039.60   969.75   29.04   6.48   3.39   3.19   3.66   3.50   3.45   3.60   3.61   3.50   60.99
1039.70   969.84   26.51   7.91   3.32   3.16   3.59   3.45   3.35   3.50   3.63   3.51   60.99
1039.80   969.92   27.62   7.41   3.59   3.32   3.73   3.51   3.21   3.38   3.65   3.48   60.99
1039.90   970.01   32.53   7.07   3.46   3.24   3.66   3.46   3.30   3.37   3.69   3.51   60.99
1040.00   970.10   38.88   6.51   3.20   3.09   3.53   3.39   3.30   3.44   3.74   3.57   60.99
1040.10   970.18   41.18   6.65   3.37   3.21   3.63   3.44   3.16   3.37   3.79   3.54   60.99
1040.20   970.27   34.92   5.76   3.88   3.53   3.89   3.61   3.10   3.31   3.81   3.55   60.99
1040.30   970.36   37.20   7.82   4.21   3.80   4.05   3.76   3.20   3.45   3.87   3.60   60.99
1040.40   970.44   38.51   8.12   4.15   3.86   4.07   3.81   3.29   3.53   3.94   3.64   60.99
1040.50   970.53   41.02   6.46   4.40   4.07   4.20   3.97   3.27   3.55   4.00   3.71   60.99
1040.60   970.62   44.26   10.39   4.53   4.20   4.30   4.08   3.39   3.59   4.06   3.77   60.99
1040.70   970.70   36.26   10.09   4.02   3.82   4.12   3.92   3.66   3.74   4.16   3.87   60.99
1040.80   970.79   33.61   5.88   3.22   3.18   3.73   3.63   3.81   3.92   4.29   3.99   60.99
1040.90   970.88   32.19   7.72   3.31   3.27   3.80   3.71   3.62   3.78   4.34   4.06   60.99
1041.00   970.96   37.23   11.09   4.49   4.14   4.45   4.21   3.46   3.63   4.36   4.05   60.99
1041.10   971.05   37.46   9.65   6.27   5.14   5.34   4.90   3.70   3.90   4.48   4.19   60.99
1041.20   971.14   38.08   6.30   6.98   6.17   5.74   5.38   3.95   4.20   4.65   4.31   60.99
1041.30   971.22   40.57   7.82   7.19   6.33   5.96   5.62   4.24   4.53   4.81   4.48   60.99
1041.40   971.31   42.49   9.95   6.31   5.62   5.77   5.45   4.60   4.92   5.02   4.67   60.99
1041.50   971.40   34.47   8.04   5.25   5.09   5.46   5.18   4.83   5.20   5.21   4.84   60.99
1041.60   971.48   24.95   5.00   4.93   4.93   5.38   5.15   4.82   5.22   5.39   4.93   60.99
1041.70   971.57   20.98   6.95   5.18   4.97   5.59   5.34   4.87   5.24   5.51   5.15   60.99
1041.80   971.66   23.27   6.22   5.46   5.09   5.89   5.51   5.21   5.50   5.71   5.35   60.21
1041.90   971.74   27.80   5.40   6.19   5.65   6.36   6.00   5.46   5.71   5.86   5.53   60.00
1042.00   971.83   32.82   5.99   7.67   6.78   7.28   6.73   5.61   5.94   6.07   5.64   60.00
1042.10   971.92   28.79   8.52   9.06   7.86   8.10   7.67   5.92   6.39   6.30   5.98   60.00
1042.20   972.00   32.37   8.94   9.14   8.16   8.50   7.83   6.47   6.95   6.64   6.12   60.00
1042.30   972.09   36.69   8.09   8.54   7.85   8.38   8.01   6.93   7.59   6.91   6.49   60.00
1042.40   972.18   34.13   6.84   8.75   8.24   8.80   8.19   7.11   7.84   7.22   6.55   60.00
1042.50   972.26   25.96   6.07   9.90   9.07   9.56   9.09   7.15   8.00   7.36   6.85   60.00
1042.60   972.35   24.07   5.96   11.30   10.38   10.58   10.14   7.83   8.48   7.66   7.14   60.00
1042.70   972.44   26.78   5.62   12.56   11.67   11.48   11.05   8.33   8.88   7.87   7.24   60.00
1042.80   972.52   28.79   6.49   15.05   13.66   12.84   12.76   9.17   9.59   8.14   7.70   60.00
1042.90   972.61   22.72   4.22   17.93   16.35   14.79   14.46   10.55   10.76   8.54   7.99   60.00
1043.00   972.70   26.52   4.25   19.68   18.43   15.77   16.05   11.40   11.52   8.80   8.29   60.00
1043.10   972.78   24.77   6.90   20.68   19.49   16.89   16.77   11.99   12.18   9.14   8.43   60.00
1043.20   972.87   19.30   6.14   22.01   20.53   17.61   18.05   12.18   12.62   9.28   8.66   60.00
1043.30   972.96   21.78   7.62   23.87   23.08   18.91   19.81   12.67   13.08   9.46   8.89   60.00
1043.40   973.04   20.22   4.98   25.88   24.31   20.05   21.13   13.01   13.71   9.68   9.07   60.00
1043.50   973.13   20.51   7.37   26.81   25.79   20.93   21.41   13.33   14.17   9.86   9.03   60.00
1043.60   973.21   22.42   6.26   27.50   26.17   21.15   22.36   14.21   14.68   9.84   9.26   60.00
1043.70   973.30   20.46   5.35   26.11   24.96   20.85   21.43   14.64   15.01   9.92   9.11   60.00
1043.80   973.39   21.74   5.94   23.60   20.92   19.74   19.79   14.58   15.26   9.86   9.27   60.00
1043.90   973.47   21.19   6.78   20.92   19.66   19.05   18.31   15.15   15.27   9.85   9.11   60.00
1044.00   973.56   20.27   6.72   20.75   18.06   18.89   17.96   14.11   15.24   9.75   9.14   60.00
1044.10   973.65   18.83   6.51   20.88   19.07   18.73   18.06   14.47   14.91   9.55   8.95   60.00
1044.20   973.73   19.46   5.24   20.25   17.58   18.40   17.19   13.86   14.92   9.41   8.91   60.00
1044.30   973.82   21.27   4.23   18.66   15.97   17.12   16.21   13.78   14.71   9.08   8.74   60.00
1044.40   973.91   19.86   5.34   16.95   14.75   16.32   14.40   12.90   13.95   8.81   8.27   60.00
1044.50   973.99   18.28   7.48   15.21   12.66   14.68   13.66   12.24   13.55   8.39   8.20   60.00
1044.60   974.08   20.04   6.54   13.60   11.58   13.37   12.59   11.52   12.83   8.01   7.91   60.00
1044.70   974.17   21.46   7.48   12.74   11.42   12.96   11.98   10.84   11.88   7.66   7.48   60.00
1044.80   974.25   22.58   5.34   13.38   11.91   12.73   12.08   10.43   11.07   7.21   7.12   60.00
1044.90   974.34   25.00   8.09   13.96   12.48   12.61   12.20   10.02   10.58   6.78   6.78   60.00
1045.00   974.43   25.80   5.47   14.10   12.94   12.31   11.93   10.03   10.01   6.40   6.37   60.00
1045.10   974.51   25.48   8.23   14.21   12.57   11.59   11.50   9.34   9.46   5.94   6.07   60.00
1045.20   974.60   28.44   8.67   14.01   12.32   10.84   10.69   8.86   8.79   5.53   5.60   60.00
1045.30   974.69   28.09   9.21   13.15   11.54   9.91   10.08   8.00   8.01   5.12   5.28   60.00
1045.40   974.77   22.66   7.43   12.19   10.94   9.14   9.13   7.35   7.17   4.77   4.91   60.00
1045.50   974.86   27.06   7.36   11.58   10.18   8.21   8.46   6.65   6.46   4.38   4.51   60.00
1045.60   974.95   29.16   6.13   10.35   9.54   7.34   7.51   5.83   5.66   4.04   4.09   60.00
1045.70   975.03   27.37   6.89   9.30   8.47   6.48   6.66   5.13   5.04   3.73   3.76   60.00
1045.80   975.12   28.25   6.26   8.06   7.43   5.81   5.77   4.61   4.57   3.50   3.45   60.00
1045.90   975.21   30.66   7.15   6.80   6.16   4.99   4.88   3.93   4.11   3.23   3.15   60.00
1046.00   975.29   26.38   7.28   5.72   5.07   4.36   4.15   3.47   3.64   2.98   2.88   60.00
1046.10   975.38   29.24   8.96   4.86   4.20   3.88   3.58   3.10   3.34   2.80   2.68   60.00
1046.20   975.47   27.13   6.62   3.70   3.08   3.21   2.88   2.72   2.97   2.60   2.46   60.00
1046.30   975.55   28.52   7.03   2.81   2.40   2.70   2.42   2.47   2.66   2.45   2.32   60.00
1046.40   975.64   29.46   8.53   2.06   1.80   2.24   2.01   2.17   2.36   2.30   2.17   60.00
1046.50   975.73   38.35   3.44   1.62   1.48   1.94   1.75   1.94   2.11   2.19   2.04   60.00
1046.60   975.81   46.65   10.60   1.36   1.28   1.71   1.57   1.74   1.89   2.08   1.93   60.00
1046.70   975.90   57.24   13.45   1.23   1.19   1.57   1.45   1.56   1.69   1.97   1.81   60.00
1046.80   975.99   64.75   16.92   1.23   1.21   1.52   1.41   1.45   1.57   1.89   1.72   60.00
1046.90   976.07   57.93   17.08   1.34   1.28   1.52   1.42   1.38   1.49   1.79   1.64   60.00
1047.00   976.16   67.58   16.91   1.47   1.37   1.55   1.43   1.36   1.46   1.72   1.58   60.00
1047.10   976.25   72.35   11.85   1.58   1.46   1.57   1.44   1.36   1.46   1.65   1.52   60.00
1047.20   976.33   73.87   18.02   1.60   1.47   1.55   1.44   1.36   1.47   1.61   1.49   60.00
1047.30   976.42   74.15   14.27   1.54   1.43   1.52   1.41   1.36   1.46   1.58   1.47   60.00
1047.40   976.51   80.89   15.32   1.43   1.36   1.46   1.38   1.35   1.44   1.56   1.45   59.13
1047.50   976.59   81.97   14.11   1.35   1.31   1.42   1.35   1.35   1.43   1.54   1.44   59.00
