~Version Information Section
VERS.           2.0     :   CWLS log ASCII Standard -VERSION 2.0
WRAP.           NO      :   One line per depth step
#
~Well Information Section
#MNEM.UNIT     VALUE/NAME     DESCRIPTION
#--------     ------------     -----------------
STRT.M                        840.30                     : START DEPTH
STOP.M                        2267.00                    : STOP DEPTH
STEP.M                        0.100                      : STEP
STRT_TVD.M                    797.19                     : START TVD
STOP_TVD.M                    2013.28                    : STOP TVD
DEPTH_SCALE.                  MD (meters)                : DEPTH SCALE
NULL.                         -999.25                    : NULL VALUE
DATE.                         2014-12-22                 : DATE
JOBN.                         ORYX_DD11                  : JOB NUMBER
UWI.                          DD 11                      : UNIQUE WELL ID
API.                          DD 11                      : API NUMBER
COMP.                         ORYX Petroleum LTD.        : COMPANY
WELL.                         Damir Dagh-11              : WELL
FLD.                          Hawler                     : FIELD
LOC.                          Damir Dagh                 : LOCATION
CNTY.                         Erbil                      : COUNTY
STAT.                         Kurdistan                  : STATE
PROV.                         Kurdistan                  : PROVINCE
CTRY.                         Iraq                       : COUNTRY
well_Location.                Damir Dagh                 : WELL LOCATION
well_Latitude.                N36 12 11.328              : WELL LATITUDE
well_Longitude.               E43 43 57.3742             : WELL LONGITUDE
well_Section.                                            : SECTION
well_Township.                                           : TOWNSHIP
well_Range.                                              : RANGE
well_Datum.                   MSL                        : PERMANENT DEPTH DATUM
well_Elevation.               0                          : PERMANENT DEPTH ELEVATION
well_KBElevation.             456.3                      : KELLY BUSHING ELEVATION
well_DFElevation.             456.3                      : DRILL FLOOR ELEVATION
well_groundElevation.          450.8                      : GROUND/SEA FLOOR ELEVATION
MDF.                          KELLY BUSHING              : MWD DEPTH MEASURED FROM
surveySection_dTimStart.          25-Nov-2014                : MWD Start Date
surveySection_mdStart.          50                         : MWD Start Depth
surveySection_dTimEnd.                                     : MWD End Date
surveySection_mdEnd.                                     : MWD End Depth
wellbore_mdCurrent.           0.0                        : Total Depth
OS1.                          Downhole Vibration         : Other Services 1
OS2.                          DH Temp.                   : Other Services 2
OS3.                                                     : Other Services 3
OS4.                                                     : Other Services 4
nameOperator.                 EDC                        : Drilling Contractor
nameRig.                      EDC-22                     : Rig Name
typeRig.                      Land Rig                   : Rig Type
OCN1.                         Richard hesse              : Oil Company Name 1
OCN2.                         George Bagheri             : Oil Company Name 2
OCN3.                                                    : Oil Company Name 3
OCN4.                                                    : Oil Company Name 4
nameDirectionalCompany.          OilServ                    : Directional Company Name
DCN1.                         Graham Chalmers            : Directional Company Name 1
DCN2.                         Omid Mcaryan               : Directional Company Name 2
DCN3.                                                    : Directional Company Name 3
DCN4.                                                    : Directional Company Name 4
SRVC.                         OilServ                    : SERVICE COMPANY
SCN1.                         Eugene Kravtsov            : Service Company Name 1
SCN2.                         Astak George               : Service Company Name 2
SCN3.                         Waqas Ahmad Tehami         : Service Company Name 3
SCN4.                         RE'al                      : Service Company Name 4
dTimCreation.                 2014/12/22                 : DATE FILE CREATED
#
~Curve Information Section
#MNEM.UNIT         API CODE       Curve Description       
#----------        -----------    -------------------------------
DEPTH.M                       :  1       DEPTH
TVD.M                         :  2       TRUE VERTICAL DEPTH
GRCM.API/sec        :  3 GAMMA RAY BOREHOLE CORRECTED
ROP.m/hr        :  4 RATE OF PENETRATION
RPCECHM.ohm-m        :  5 RESISTIVITY PHASE DIFF. 2 MHZ LONG SPACING
RPCECSHM.ohm-m        :  6 RESISTIVITY PHASE DIFF. 2 MHZ SHORT SPACING
RPCECLM.ohm-m        :  7 RESISTIVITY PHASE DIFF. 400 KHZ LONG SPACING
RPCECSLM.ohm-m        :  8 RESISTIVITY PHASE DIFF. 400 KHZ SHORT SPACING
RACECSHM.ohm-m        :  9 RESISTIVITY ATTEN. 2 MHZ SHORT SPACING
RACECHM.ohm-m        :  10 RESISTIVITY ATTEN. 2 MHZ LONG SPACING
RACECLM.ohm-m        :  11 RESISTIVITY ATTEN. 400 KHZ LONG SPACING
RACECSLM.ohm-m        :  12 RESISTIVITY ATTEN. 400 KHZ SHORT SPACING
TRM.Celsius        :  13 RESISTIVITY COMPENSATION TEMPERATURE
~A
# ...
1135.40   1052.67   18.99   6.22   30.29   28.11   13.98   15.18   8.14   8.24   6.40   5.92   62.00
1135.50   1052.76   16.99   4.75   23.58   22.12   12.29   12.97   7.15   7.64   6.37   5.78   62.00
1135.60   1052.84   16.89   5.67   18.21   16.79   10.65   10.39   6.44   7.06   6.27   5.47   62.00
1135.70   1052.93   13.55   7.93   12.94   11.01   8.99   8.22   5.43   6.58   6.22   5.29   62.00
1135.80   1053.02   16.96   7.85   9.25   7.83   7.58   6.57   4.90   6.03   6.13   5.12   62.00
1135.90   1053.10   15.95   5.00   6.10   5.10   6.05   5.05   4.46   5.41   6.07   5.03   62.00
1136.00   1053.19   16.50   9.38   4.07   3.48   4.91   4.05   4.10   4.90   6.08   5.01   62.00
1136.10   1053.28   21.88   7.75   3.24   2.89   4.24   3.58   3.77   4.57   6.03   4.89   62.00
1136.20   1053.36   27.33   10.55   2.76   2.56   3.88   3.32   3.55   4.24   6.01   4.87   62.00
1136.30   1053.45   26.32   8.47   2.48   2.38   3.66   3.17   3.55   4.08   6.07   4.90   62.00
1136.40   1053.53   32.21   10.84   2.40   2.41   3.60   3.16   3.50   4.08   6.13   4.88   62.00
1136.50   1053.62   41.38   8.21   3.10   2.98   4.09   3.58   3.28   4.01   6.01   4.76   62.00
1136.60   1053.71   56.57   6.94   5.15   4.41   5.22   4.45   3.39   4.15   5.89   4.73   62.00
1136.70   1053.79   48.64   5.73   8.22   6.69   6.68   5.64   3.88   4.75   6.02   4.90   62.00
1136.80   1053.88   47.25   8.33   10.90   9.07   7.98   6.89   4.40   5.37   6.23   5.11   62.00
1136.90   1053.97   37.92   7.67   13.35   11.65   8.96   8.23   4.96   5.95   6.43   5.33   62.00
1137.00   1054.05   33.04   7.19   16.08   15.55   10.26   10.08   5.85   6.71   6.71   5.71   62.00
1137.10   1054.14   28.30   6.31   19.29   19.44   11.40   11.77   6.86   7.49   6.96   6.01   62.00
1137.20   1054.23   22.78   5.90   22.76   22.96   13.10   13.79   8.29   8.39   7.28   6.37   62.00
1137.30   1054.31   22.50   5.70   27.77   25.00   14.68   15.84   9.48   9.62   7.53   6.86   62.00
1137.40   1054.40   15.55   5.93   32.28   27.48   16.72   18.11   11.69   11.34   7.91   7.39   62.00
1137.50   1054.49   17.88   5.85   32.80   28.80   18.39   19.70   13.22   12.63   8.29   7.78   62.00
1137.60   1054.57   17.45   7.31   33.91   29.61   20.41   21.59   14.95   14.45   8.80   8.25   62.00
1137.70   1054.66   15.32   7.71   33.38   29.40   21.41   22.15   16.48   15.54   9.10   8.48   62.00
1137.80   1054.74   17.56   6.87   34.04   27.57   21.86   22.20   16.82   17.09   9.36   8.73   62.00
1137.90   1054.83   15.39   7.14   32.70   27.57   22.95   23.40   16.03   17.85   9.65   9.07   62.00
1138.00   1054.92   15.77   6.80   34.34   27.89   24.33   23.77   16.84   18.54   9.95   9.14   62.00
1138.10   1055.00   16.62   5.31   35.65   28.96   25.50   25.72   17.57   20.12   10.22   9.52   62.00
1138.20   1055.09   13.02   15.44   39.44   30.84   27.23   27.24   17.69   20.71   10.29   9.58   62.00
1138.30   1055.18   16.39   5.80   40.72   33.49   28.64   30.23   18.80   20.72   10.36   9.90   62.00
1138.40   1055.26   17.78   7.64   39.68   34.04   29.39   29.05   19.49   21.04   10.47   9.49   62.00
1138.50   1055.35   15.26   4.36   39.47   33.29   28.78   28.75   19.72   21.61   10.32   9.50   62.00
1138.60   1055.44   14.21   6.77   37.92   32.74   27.98   26.94   19.70   20.49   10.19   9.23   62.00
1138.70   1055.52   15.63   5.78   35.27   30.68   26.26   25.35   17.41   19.57   9.88   9.00   62.00
1138.80   1055.61   16.90   7.23   35.56   30.58   25.25   25.62   16.75   18.57   9.48   8.84   62.00
1138.90   1055.70   16.78   6.09   35.23   31.04   24.06   25.58   16.76   17.70   9.06   8.72   61.41
1139.00   1055.78   17.96   6.09   33.76   30.61   22.85   24.66   16.67   16.64   8.73   8.38   61.35
1139.10   1055.87   19.57   7.58   31.74   28.80   21.04   22.43   16.41   15.31   8.30   7.98   61.06
1139.20   1055.95   18.25   6.44   29.49   27.04   19.26   20.97   14.94   14.11   7.88   7.64   60.99
1139.30   1056.04   20.23   6.36   27.76   24.90   17.74   18.84   13.43   13.13   7.53   7.27   60.99
1139.40   1056.13   18.76   7.20   24.82   21.24   15.68   16.54   11.90   11.53   7.06   6.95   60.99
1139.50   1056.21   22.06   8.45   20.55   17.86   13.50   13.87   10.71   10.22   6.63   6.38   60.99
1139.60   1056.30   22.27   7.13   17.43   16.09   11.85   12.09   9.52   9.17   6.26   6.00   60.99
1139.70   1056.39   20.75   7.02   15.35   13.72   10.68   10.69   8.50   8.42   5.97   5.67   60.99
1139.80   1056.47   25.57   7.81   11.93   10.32   8.92   8.56   7.22   7.41   5.56   5.25   60.99
1139.90   1056.56   26.84   7.82   9.05   7.64   7.36   6.85   6.13   6.69   5.25   4.91   60.99
1140.00   1056.65   28.00   10.49   6.99   5.99   6.30   5.68   5.24   5.90   4.97   4.56   60.99
1140.10   1056.73   26.19   9.31   5.78   4.86   5.47   4.87   4.72   5.19   4.73   4.35   60.99
1140.20   1056.82   37.04   9.51   4.55   3.89   4.71   4.17   4.24   4.77   4.52   4.15   60.99
1140.30   1056.90   31.85   9.47   2.97   2.63   3.67   3.18   3.77   4.28   4.31   3.84   60.99
1140.40   1056.99   39.21   13.40   2.47   2.24   3.25   2.84   3.32   3.81   4.16   3.69   60.99
1140.50   1057.08   44.07   16.74   2.30   2.05   3.03   2.63   2.95   3.40   3.95   3.54   60.99
1140.60   1057.16   59.40   20.44   2.22   1.99   2.92   2.52   2.74   3.15   3.82   3.40   60.99
1140.70   1057.25   70.78   25.62   2.17   1.92   2.81   2.45   2.60   3.02   3.70   3.32   60.99
1140.80   1057.34   70.93   19.86   2.10   1.91   2.73   2.38   2.51   2.88   3.58   3.19   60.99
1140.90   1057.42   83.29   20.34   2.20   2.03   2.69   2.47   2.44   2.80   3.42   3.13   60.99
1141.00   1057.51   83.84   14.35   2.45   2.36   2.81   2.62   2.54   2.80   3.29   3.03   60.99
1141.10   1057.60   85.10   18.55   2.68   2.60   2.92   2.76   2.65   2.84   3.22   2.99   60.99
1141.20   1057.68   76.52   13.72   2.91   2.86   3.01   2.92   2.70   2.85   3.15   2.97   60.99
1141.30   1057.77   75.17   14.06   3.56   3.43   3.28   3.20   2.74   2.85   3.06   2.92   60.99
1141.40   1057.85   76.99   20.19   4.32   4.09   3.53   3.51   2.81   2.95   3.00   2.90   60.99
1141.50   1057.94   71.44   16.65   4.95   4.68   3.76   3.76   2.99   3.06   2.97   2.88   60.99
1141.60   1058.03   79.01   14.66   5.27   4.88   3.85   3.88   3.10   3.15   2.94   2.89   60.99
1141.70   1058.11   67.78   15.87   4.89   4.58   3.74   3.74   3.18   3.19   2.92   2.87   60.99
1141.80   1058.20   65.53   10.37   4.02   3.72   3.42   3.38   3.22   3.18   2.88   2.84   60.99
1141.90   1058.29   56.51   7.60   3.00   2.70   2.98   2.88   3.01   3.05   2.85   2.82   60.99
1142.00   1058.37   54.56   9.72   2.40   2.21   2.66   2.55   2.78   2.91   2.81   2.75   60.99
1142.10   1058.46   49.53   12.79   2.07   1.98   2.48   2.38   2.54   2.73   2.77   2.68   60.99
1142.20   1058.55   59.87   17.47   2.01   1.91   2.41   2.29   2.42   2.59   2.73   2.63   60.99
1142.30   1058.63   72.77   14.25   1.96   1.86   2.35   2.22   2.28   2.45   2.68   2.58   60.99
1142.40   1058.72   79.88   18.69   1.97   1.85   2.31   2.19   2.20   2.40   2.64   2.52   60.99
1142.50   1058.80   78.65   25.51   2.08   1.96   2.36   2.20   2.17   2.32   2.61   2.45   60.99
1142.60   1058.89   87.44   18.09   2.29   2.12   2.43   2.27   2.18   2.30   2.57   2.42   60.99
1142.70   1058.98   87.32   22.00   2.37   2.17   2.45   2.28   2.20   2.33   2.55   2.39   60.99
1142.80   1059.06   90.46   20.52   2.34   2.16   2.41   2.26   2.17   2.34   2.53   2.36   60.99
1142.90   1059.15   81.63   16.83   2.29   2.19   2.38   2.24   2.15   2.31   2.52   2.32   60.99
1143.00   1059.24   75.66   14.18   2.27   2.19   2.36   2.23   2.14   2.28   2.51   2.32   60.99
1143.10   1059.32   86.03   22.53   2.23   2.15   2.33   2.21   2.11   2.27   2.52   2.32   60.99
1143.20   1059.41   87.88   20.34   2.19   2.11   2.31   2.21   2.14   2.29   2.54   2.34   60.99
1143.30   1059.50   82.49   10.75   2.13   2.08   2.29   2.19   2.15   2.28   2.56   2.35   60.99
1143.40   1059.58   90.39   13.16   2.07   2.01   2.28   2.16   2.13   2.27   2.59   2.38   60.99
