~Version Information Section
VERS.           2.0     :   CWLS log ASCII Standard -VERSION 2.0
WRAP.           NO      :   One line per depth step
#
~Well Information Section
#MNEM.UNIT     VALUE/NAME     DESCRIPTION
#--------     ------------     -----------------
STRT.M                        840.30                     : START DEPTH
STOP.M                        2267.00                    : STOP DEPTH
STEP.M                        0.100                      : STEP
STRT_TVD.M                    797.19                     : START TVD
STOP_TVD.M                    2013.28                    : STOP TVD
DEPTH_SCALE.                  MD (meters)                : DEPTH SCALE
NULL.                         -999.25                    : NULL VALUE
DATE.                         2014-12-22                 : DATE
JOBN.                         ORYX_DD11                  : JOB NUMBER
UWI.                          DD 11                      : UNIQUE WELL ID
API.                          DD 11                      : API NUMBER
COMP.                         ORYX Petroleum LTD.        : COMPANY
WELL.                         Damir Dagh-11              : WELL
FLD.                          Hawler                     : FIELD
LOC.                          Damir Dagh                 : LOCATION
CNTY.                         Erbil                      : COUNTY
STAT.                         Kurdistan                  : STATE
PROV.                         Kurdistan                  : PROVINCE
CTRY.                         Iraq                       : COUNTRY
well_Location.                Damir Dagh                 : WELL LOCATION
well_Latitude.                N36 12 11.328              : WELL LATITUDE
well_Longitude.               E43 43 57.3742             : WELL LONGITUDE
well_Section.                                            : SECTION
well_Township.                                           : TOWNSHIP
well_Range.                                              : RANGE
well_Datum.                   MSL                        : PERMANENT DEPTH DATUM
well_Elevation.               0                          : PERMANENT DEPTH ELEVATION
well_KBElevation.             456.3                      : KELLY BUSHING ELEVATION
well_DFElevation.             456.3                      : DRILL FLOOR ELEVATION
well_groundElevation.          450.8                      : GROUND/SEA FLOOR ELEVATION
MDF.                          KELLY BUSHING              : MWD DEPTH MEASURED FROM
surveySection_dTimStart.          25-Nov-2014                : MWD Start Date
surveySection_mdStart.          50                         : MWD Start Depth
surveySection_dTimEnd.                                     : MWD End Date
surveySection_mdEnd.                                     : MWD End Depth
wellbore_mdCurrent.           0.0                        : Total Depth
OS1.                          Downhole Vibration         : Other Services 1
OS2.                          DH Temp.                   : Other Services 2
OS3.                                                     : Other Services 3
OS4.                                                     : Other Services 4
nameOperator.                 EDC                        : Drilling Contractor
nameRig.                      EDC-22                     : Rig Name
typeRig.                      Land Rig                   : Rig Type
OCN1.                         Richard hesse              : Oil Company Name 1
OCN2.                         George Bagheri             : Oil Company Name 2
OCN3.                                                    : Oil Company Name 3
OCN4.                                                    : Oil Company Name 4
nameDirectionalCompany.          OilServ                    : Directional Company Name
DCN1.                         Graham Chalmers            : Directional Company Name 1
DCN2.                         Omid Mcaryan               : Directional Company Name 2
DCN3.                                                    : Directional Company Name 3
DCN4.                                                    : Directional Company Name 4
SRVC.                         OilServ                    : SERVICE COMPANY
SCN1.                         Eugene Kravtsov            : Service Company Name 1
SCN2.                         Astak George               : Service Company Name 2
SCN3.                         Waqas Ahmad Tehami         : Service Company Name 3
SCN4.                         RE'al                      : Service Company Name 4
dTimCreation.                 2014/12/22                 : DATE FILE CREATED
#
~Curve Information Section
#MNEM.UNIT         API CODE       Curve Description       
#----------        -----------    -------------------------------
DEPTH.M                       :  1       DEPTH
TVD.M                         :  2       TRUE VERTICAL DEPTH
GRCM.API/sec        :  3 GAMMA RAY BOREHOLE CORRECTED
ROP.m/hr        :  4 RATE OF PENETRATION
RPCECHM.ohm-m        :  5 RESISTIVITY PHASE DIFF. 2 MHZ LONG SPACING
RPCECSHM.ohm-m        :  6 RESISTIVITY PHASE DIFF. 2 MHZ SHORT SPACING
RPCECLM.ohm-m        :  7 RESISTIVITY PHASE DIFF. 400 KHZ LONG SPACING
RPCECSLM.ohm-m        :  8 RESISTIVITY PHASE DIFF. 400 KHZ SHORT SPACING
RACECSHM.ohm-m        :  9 RESISTIVITY ATTEN. 2 MHZ SHORT SPACING
RACECHM.ohm-m        :  10 RESISTIVITY ATTEN. 2 MHZ LONG SPACING
RACECLM.ohm-m        :  11 RESISTIVITY ATTEN. 400 KHZ LONG SPACING
RACECSLM.ohm-m        :  12 RESISTIVITY ATTEN. 400 KHZ SHORT SPACING
TRM.Celsius        :  13 RESISTIVITY COMPENSATION TEMPERATURE
~A
# ...
1981.10   1780.98   24.87   7.33   7.81   7.59   7.82   7.70   7.21   7.36   9.06   7.85   67.00
1981.20   1781.06   20.43   1.50   7.79   7.54   7.79   7.67   7.20   7.35   9.08   7.83   67.00
1981.30   1781.14   20.03   3.74   7.76   7.51   7.79   7.66   7.19   7.34   9.07   7.82   67.00
1981.40   1781.22   19.39   2.40   7.73   7.48   7.78   7.64   7.18   7.34   9.09   7.89   67.00
1981.50   1781.31   23.28   2.82   7.69   7.45   7.75   7.59   7.19   7.35   9.12   7.79   67.00
1981.60   1781.39   29.82   2.96   7.64   7.42   7.75   7.58   7.20   7.35   9.10   7.83   67.00
1981.70   1781.47   27.86   3.10   7.64   7.40   7.74   7.59   7.19   7.37   9.15   7.90   67.00
1981.80   1781.56   26.97   2.80   7.62   7.37   7.75   7.58   7.23   7.38   9.18   7.89   67.00
1981.90   1781.64   30.98   3.20   7.57   7.34   7.72   7.56   7.25   7.41   9.17   7.94   67.00
1982.00   1781.72   35.17   3.91   7.57   7.34   7.72   7.58   7.28   7.41   9.17   7.96   65.99
1982.10   1781.81   25.54   3.78   7.68   7.45   7.79   7.63   7.26   7.41   9.24   7.91   65.99
1982.20   1781.89   25.68   2.26   7.81   7.58   7.85   7.74   7.26   7.40   9.23   7.96   65.99
1982.30   1781.97   23.38   3.36   7.89   7.69   7.90   7.77   7.28   7.40   9.23   7.94   65.99
1982.40   1782.05   21.60   3.21   7.93   7.70   7.91   7.81   7.30   7.42   9.23   7.95   65.99
1982.50   1782.14   24.54   3.21   7.93   7.73   7.92   7.82   7.35   7.45   9.25   7.98   65.99
1982.60   1782.22   20.33   3.39   7.95   7.74   7.95   7.84   7.36   7.47   9.29   8.01   65.99
1982.70   1782.30   18.54   3.11   8.02   7.81   7.99   7.89   7.39   7.49   9.28   8.02   65.99
1982.80   1782.39   21.02   3.72   8.07   7.88   8.02   7.93   7.40   7.50   9.30   8.06   66.92
1982.90   1782.47   18.05   3.11   8.07   7.92   8.04   7.96   7.42   7.52   9.34   8.02   67.00
1983.00   1782.55   22.24   3.54   8.05   7.89   8.04   7.97   7.46   7.54   9.37   8.15   67.00
1983.10   1782.64   23.74   3.27   8.05   7.89   8.04   7.97   7.48   7.56   9.43   8.14   67.00
1983.20   1782.72   22.88   3.23   8.09   7.92   8.07   8.01   7.49   7.57   9.45   8.11   67.00
1983.30   1782.80   17.68   3.56   8.13   7.95   8.10   8.03   7.49   7.59   9.45   8.20   67.00
1983.40   1782.88   17.07   3.26   8.17   7.99   8.13   8.04   7.49   7.60   9.47   8.22   67.00
1983.50   1782.97   17.20   2.62   8.20   8.01   8.15   8.06   7.49   7.60   9.50   8.20   67.00
1983.60   1783.05   19.11   3.41   8.22   7.97   8.16   8.06   7.48   7.62   9.53   8.20   67.00
1983.70   1783.13   21.18   3.22   8.19   7.95   8.16   8.04   7.51   7.63   9.58   8.18   67.00
1983.80   1783.22   17.94   2.94   8.17   7.91   8.16   8.04   7.50   7.65   9.56   8.20   67.00
1983.90   1783.30   19.31   2.84   8.12   7.87   8.15   8.02   7.52   7.67   9.56   8.30   67.00
1984.00   1783.38   25.05   2.69   8.03   7.76   8.12   7.99   7.55   7.71   9.66   8.28   67.00
1984.10   1783.46   26.75   3.21   7.93   7.69   8.08   7.93   7.59   7.74   9.67   8.32   67.00
1984.20   1783.55   25.44   3.58   7.89   7.64   8.07   7.92   7.61   7.76   9.71   8.33   67.00
1984.30   1783.63   27.52   3.08   7.92   7.68   8.10   7.91   7.64   7.78   9.73   8.28   67.00
1984.40   1783.71   28.47   3.35   7.96   7.69   8.12   7.96   7.63   7.80   9.75   8.44   67.00
1984.50   1783.80   26.16   3.51   8.03   7.78   8.17   8.03   7.66   7.81   9.79   8.41   67.00
1984.60   1783.88   21.55   3.31   8.16   7.89   8.24   8.09   7.65   7.81   9.82   8.41   67.00
1984.70   1783.96   23.34   4.54   8.30   8.05   8.32   8.18   7.67   7.81   9.82   8.43   67.00
1984.80   1784.05   21.75   2.61   8.38   8.14   8.36   8.25   7.69   7.82   9.83   8.44   67.00
1984.90   1784.13   19.99   3.56   8.40   8.15   8.37   8.27   7.69   7.84   9.85   8.43   67.00
1985.00   1784.21   17.96   3.07   8.41   8.18   8.39   8.29   7.72   7.85   9.85   8.50   67.00
1985.10   1784.29   18.04   3.06   8.44   8.22   8.41   8.32   7.75   7.86   9.88   8.47   67.00
1985.20   1784.38   17.80   2.57   8.46   8.25   8.42   8.34   7.77   7.87   9.88   8.46   67.00
1985.30   1784.46   17.15   2.51   8.46   8.26   8.43   8.38   7.78   7.89   9.91   8.49   67.00
1985.40   1784.54   19.55   2.38   8.46   8.28   8.44   8.37   7.81   7.90   9.89   8.52   67.00
1985.50   1784.63   20.66   2.54   8.46   8.28   8.45   8.37   7.82   7.91   9.97   8.53   67.00
1985.60   1784.71   22.78   3.68   8.44   8.23   8.44   8.36   7.82   7.92   9.95   8.56   67.00
1985.70   1784.79   18.59   2.35   8.40   8.21   8.43   8.33   7.84   7.93   9.97   8.57   67.00
1985.80   1784.87   23.12   3.17   8.39   8.17   8.42   8.30   7.84   7.94   9.96   8.54   67.00
1985.90   1784.96   23.75   2.33   8.38   8.15   8.43   8.31   7.82   7.94   9.92   8.53   67.00
1986.00   1785.04   21.31   2.77   8.37   8.13   8.41   8.30   7.79   7.93   9.91   8.51   67.00
1986.10   1785.12   22.41   1.79   8.35   8.09   8.40   8.26   7.80   7.94   9.88   8.46   67.00
1986.20   1785.21   24.46   2.41   8.28   8.03   8.37   8.25   7.80   7.94   9.89   8.54   67.00
1986.30   1785.29   24.36   1.94   8.23   7.99   8.34   8.23   7.79   7.94   9.85   8.50   67.00
1986.40   1785.37   23.64   2.77   8.24   7.97   8.35   8.19   7.79   7.94   9.85   8.50   67.00
1986.50   1785.45   25.14   2.04   8.19   7.92   8.32   8.18   7.79   7.94   9.81   8.40   67.00
1986.60   1785.54   26.74   2.67   8.14   7.88   8.28   8.13   7.78   7.94   9.85   8.45   67.00
1986.70   1785.62   24.98   3.02   8.21   7.92   8.31   8.16   7.75   7.91   9.78   8.43   67.00
1986.80   1785.70   23.32   2.52   8.31   8.03   8.35   8.22   7.73   7.89   9.76   8.41   67.00
1986.90   1785.79   22.15   2.78   8.32   8.03   8.35   8.21   7.74   7.88   9.74   8.41   67.00
1987.00   1785.87   22.53   3.08   8.22   7.98   8.29   8.15   7.77   7.89   9.72   8.30   67.00
1987.10   1785.95   22.77   3.15   8.12   7.90   8.22   8.12   7.76   7.88   9.68   8.42   67.00
1987.20   1786.03   25.31   3.47   8.16   7.95   8.23   8.15   7.74   7.84   9.64   8.36   67.00
1987.30   1786.12   19.43   4.32   8.27   8.07   8.27   8.18   7.73   7.80   9.60   8.28   67.00
1987.40   1786.20   19.10   3.21   8.33   8.15   8.28   8.22   7.70   7.77   9.55   8.22   67.00
1987.50   1786.28   18.09   3.03   8.37   8.18   8.29   8.23   7.67   7.74   9.51   8.18   67.00
1987.60   1786.37   20.93   3.58   8.40   8.22   8.29   8.24   7.67   7.71   9.50   8.24   67.00
1987.70   1786.45   24.01   3.10   8.43   8.25   8.28   8.25   7.63   7.67   9.46   8.23   67.00
1987.80   1786.53   20.76   4.00   8.43   8.27   8.27   8.24   7.57   7.62   9.42   8.10   67.00
1987.90   1786.61   22.48   2.94   8.40   8.23   8.22   8.23   7.51   7.59   9.35   8.14   67.00
1988.00   1786.70   18.56   3.89   8.29   8.13   8.16   8.13   7.49   7.55   9.36   8.11   67.00
1988.10   1786.78   15.79   3.21   8.17   7.93   8.10   8.00   7.46   7.55   9.34   8.05   67.00
1988.20   1786.86   18.91   2.73   8.06   7.79   8.02   7.89   7.43   7.53   9.33   8.05   67.00
1988.30   1786.95   21.15   3.14   7.91   7.64   7.93   7.81   7.38   7.50   9.29   8.06   67.00
1988.40   1787.03   25.88   3.01   7.74   7.50   7.84   7.72   7.33   7.46   9.29   8.04   67.00
1988.50   1787.11   27.68   3.55   7.60   7.34   7.74   7.58   7.29   7.43   9.29   8.01   67.00
1988.60   1787.19   26.31   3.09   7.39   7.14   7.64   7.44   7.26   7.40   9.24   7.99   67.00
1988.70   1787.28   29.22   2.97   7.24   7.00   7.54   7.35   7.22   7.36   9.25   8.00   67.00
1988.80   1787.36   31.15   4.34   7.22   6.97   7.51   7.31   7.14   7.31   9.22   7.96   67.00
1988.90   1787.44   29.52   3.06   7.27   6.99   7.53   7.33   7.08   7.26   9.18   7.94   67.00
1989.00   1787.52   25.77   3.25   7.24   6.98   7.50   7.30   7.06   7.23   9.17   7.91   67.00
1989.10   1787.61   26.47   4.28   7.21   6.97   7.48   7.28   7.04   7.22   9.16   7.89   67.00
1989.20   1787.69   28.77   3.98   7.24   7.01   7.48   7.31   7.01   7.19   9.10   7.86   67.00
1989.30   1787.77   29.37   3.45   7.33   7.09   7.52   7.34   7.00   7.17   9.12   7.87   67.00
