~Version Information Section
VERS.           2.0     :   CWLS log ASCII Standard -VERSION 2.0
WRAP.           NO      :   One line per depth step
#
~Well Information Section
#MNEM.UNIT     VALUE/NAME     DESCRIPTION
#--------     ------------     -----------------
STRT.M                        840.30                     : START DEPTH
STOP.M                        2267.00                    : STOP DEPTH
STEP.M                        0.100                      : STEP
STRT_TVD.M                    797.19                     : START TVD
STOP_TVD.M                    2013.28                    : STOP TVD
DEPTH_SCALE.                  MD (meters)                : DEPTH SCALE
NULL.                         -999.25                    : NULL VALUE
DATE.                         2014-12-22                 : DATE
JOBN.                         ORYX_DD11                  : JOB NUMBER
UWI.                          DD 11                      : UNIQUE WELL ID
API.                          DD 11                      : API NUMBER
COMP.                         ORYX Petroleum LTD.        : COMPANY
WELL.                         Damir Dagh-11              : WELL
FLD.                          Hawler                     : FIELD
LOC.                          Damir Dagh                 : LOCATION
CNTY.                         Erbil                      : COUNTY
STAT.                         Kurdistan                  : STATE
PROV.                         Kurdistan                  : PROVINCE
CTRY.                         Iraq                       : COUNTRY
well_Location.                Damir Dagh                 : WELL LOCATION
well_Latitude.                N36 12 11.328              : WELL LATITUDE
well_Longitude.               E43 43 57.3742             : WELL LONGITUDE
well_Section.                                            : SECTION
well_Township.                                           : TOWNSHIP
well_Range.                                              : RANGE
well_Datum.                   MSL                        : PERMANENT DEPTH DATUM
well_Elevation.               0                          : PERMANENT DEPTH ELEVATION
well_KBElevation.             456.3                      : KELLY BUSHING ELEVATION
well_DFElevation.             456.3                      : DRILL FLOOR ELEVATION
well_groundElevation.          450.8                      : GROUND/SEA FLOOR ELEVATION
MDF.                          KELLY BUSHING              : MWD DEPTH MEASURED FROM
surveySection_dTimStart.          25-Nov-2014                : MWD Start Date
surveySection_mdStart.          50                         : MWD Start Depth
surveySection_dTimEnd.                                     : MWD End Date
surveySection_mdEnd.                                     : MWD End Depth
wellbore_mdCurrent.           0.0                        : Total Depth
OS1.                          Downhole Vibration         : Other Services 1
OS2.                          DH Temp.                   : Other Services 2
OS3.                                                     : Other Services 3
OS4.                                                     : Other Services 4
nameOperator.                 EDC                        : Drilling Contractor
nameRig.                      EDC-22                     : Rig Name
typeRig.                      Land Rig                   : Rig Type
OCN1.                         Richard hesse              : Oil Company Name 1
OCN2.                         George Bagheri             : Oil Company Name 2
OCN3.                                                    : Oil Company Name 3
OCN4.                                                    : Oil Company Name 4
nameDirectionalCompany.          OilServ                    : Directional Company Name
DCN1.                         Graham Chalmers            : Directional Company Name 1
DCN2.                         Omid Mcaryan               : Directional Company Name 2
DCN3.                                                    : Directional Company Name 3
DCN4.                                                    : Directional Company Name 4
SRVC.                         OilServ                    : SERVICE COMPANY
SCN1.                         Eugene Kravtsov            : Service Company Name 1
SCN2.                         Astak George               : Service Company Name 2
SCN3.                         Waqas Ahmad Tehami         : Service Company Name 3
SCN4.                         RE'al                      : Service Company Name 4
dTimCreation.                 2014/12/22                 : DATE FILE CREATED
#
~Curve Information Section
#MNEM.UNIT         API CODE       Curve Description       
#----------        -----------    -------------------------------
DEPTH.M                       :  1       DEPTH
TVD.M                         :  2       TRUE VERTICAL DEPTH
GRCM.API/sec        :  3 GAMMA RAY BOREHOLE CORRECTED
ROP.m/hr        :  4 RATE OF PENETRATION
RPCECHM.ohm-m        :  5 RESISTIVITY PHASE DIFF. 2 MHZ LONG SPACING
RPCECSHM.ohm-m        :  6 RESISTIVITY PHASE DIFF. 2 MHZ SHORT SPACING
RPCECLM.ohm-m        :  7 RESISTIVITY PHASE DIFF. 400 KHZ LONG SPACING
RPCECSLM.ohm-m        :  8 RESISTIVITY PHASE DIFF. 400 KHZ SHORT SPACING
RACECSHM.ohm-m        :  9 RESISTIVITY ATTEN. 2 MHZ SHORT SPACING
RACECHM.ohm-m        :  10 RESISTIVITY ATTEN. 2 MHZ LONG SPACING
RACECLM.ohm-m        :  11 RESISTIVITY ATTEN. 400 KHZ LONG SPACING
RACECSLM.ohm-m        :  12 RESISTIVITY ATTEN. 400 KHZ SHORT SPACING
TRM.Celsius        :  13 RESISTIVITY COMPENSATION TEMPERATURE
~A
# ...
1513.10   1380.15   28.53   5.68   2.11   2.02   2.08   2.04   1.94   1.98   2.03   1.99   79.99
1513.20   1380.24   30.95   4.00   2.11   2.02   2.08   2.04   1.91   1.94   2.02   1.97   79.99
1513.30   1380.32   28.53   5.49   2.00   1.92   2.02   1.97   1.87   1.92   2.01   1.97   79.99
1513.40   1380.41   33.55   5.04   1.91   1.83   1.97   1.92   1.85   1.91   2.00   1.95   79.99
1513.50   1380.50   28.96   11.54   1.88   1.83   1.96   1.92   1.84   1.90   1.99   1.95   79.99
1513.60   1380.58   29.35   8.97   1.87   1.81   1.94   1.90   1.84   1.89   1.99   1.93   79.99
1513.70   1380.67   31.67   10.13   1.83   1.76   1.93   1.88   1.85   1.89   1.98   1.94   79.99
1513.80   1380.76   31.60   13.48   1.84   1.76   1.92   1.88   1.85   1.90   1.97   1.93   79.99
1513.90   1380.84   28.33   9.49   1.83   1.76   1.91   1.87   1.85   1.90   1.96   1.91   79.99
1514.00   1380.93   37.42   10.02   1.79   1.72   1.89   1.85   1.85   1.89   1.94   1.89   79.99
1514.10   1381.02   30.75   11.98   1.76   1.69   1.86   1.83   1.84   1.88   1.93   1.89   79.99
1514.20   1381.11   34.09   11.70   1.77   1.70   1.86   1.82   1.82   1.88   1.91   1.86   79.99
1514.30   1381.19   38.75   9.05   1.81   1.74   1.87   1.83   1.80   1.86   1.89   1.85   79.99
1514.40   1381.28   34.03   8.39   1.84   1.76   1.87   1.84   1.77   1.84   1.88   1.83   79.99
1514.50   1381.37   34.25   12.20   1.86   1.79   1.85   1.82   1.75   1.82   1.85   1.81   79.99
1514.60   1381.45   34.29   14.12   1.81   1.74   1.83   1.79   1.71   1.78   1.82   1.77   79.99
1514.70   1381.54   30.23   14.59   1.80   1.73   1.81   1.77   1.71   1.78   1.82   1.76   79.99
1514.80   1381.63   31.20   15.74   1.74   1.68   1.78   1.74   1.70   1.75   1.80   1.75   79.99
1514.90   1381.71   31.25   9.90   1.68   1.64   1.74   1.71   1.68   1.73   1.80   1.76   79.99
1515.00   1381.80   34.87   14.87   1.64   1.60   1.71   1.69   1.64   1.69   1.78   1.74   79.99
1515.10   1381.89   32.30   14.61   1.62   1.57   1.67   1.65   1.63   1.68   1.75   1.71   79.99
1515.20   1381.97   32.78   17.50   1.62   1.55   1.67   1.63   1.61   1.67   1.74   1.69   79.99
1515.30   1382.06   35.47   17.01   1.60   1.54   1.65   1.62   1.59   1.65   1.72   1.65   79.99
1515.40   1382.15   41.48   13.87   1.61   1.54   1.64   1.61   1.58   1.65   1.71   1.65   79.99
1515.50   1382.24   38.98   9.65   1.57   1.49   1.62   1.58   1.56   1.62   1.70   1.63   79.99
1515.60   1382.32   35.78   11.25   1.54   1.46   1.59   1.56   1.55   1.61   1.69   1.63   79.99
1515.70   1382.41   43.57   10.69   1.50   1.45   1.57   1.54   1.54   1.59   1.68   1.63   79.99
1515.80   1382.50   43.13   10.81   1.45   1.40   1.55   1.51   1.53   1.57   1.67   1.61   79.99
1515.90   1382.58   34.76   12.04   1.46   1.41   1.55   1.51   1.51   1.57   1.66   1.60   79.99
1516.00   1382.67   38.80   12.78   1.50   1.44   1.56   1.52   1.50   1.55   1.66   1.60   79.99
1516.10   1382.76   39.75   16.19   1.58   1.49   1.59   1.55   1.51   1.56   1.66   1.60   79.99
1516.20   1382.84   38.55   2.16   1.58   1.51   1.60   1.55   1.52   1.57   1.65   1.60   79.99
1516.30   1382.93   33.67   22.23   1.60   1.51   1.60   1.56   1.54   1.59   1.65   1.61   79.99
1516.40   1383.02   39.07   21.30   1.55   1.47   1.57   1.55   1.56   1.62   1.66   1.61   79.99
1516.50   1383.11   40.55   17.43   1.49   1.41   1.56   1.53   1.57   1.61   1.65   1.60   79.99
1516.60   1383.19   35.17   28.15   1.48   1.39   1.56   1.53   1.54   1.59   1.64   1.58   79.99
1516.70   1383.28   32.89   23.67   1.48   1.43   1.55   1.52   1.52   1.56   1.64   1.60   79.99
1516.80   1383.37   41.32   20.71   1.54   1.47   1.58   1.55   1.52   1.57   1.64   1.61   79.99
1516.90   1383.45   43.96   24.44   1.54   1.48   1.58   1.55   1.56   1.58   1.64   1.61   79.99
1517.00   1383.54   38.51   26.11   1.57   1.50   1.60   1.57   1.57   1.60   1.64   1.61   79.99
1517.10   1383.63   34.57   30.56   1.61   1.52   1.62   1.60   1.55   1.60   1.64   1.60   79.99
1517.20   1383.71   40.89   17.12   1.65   1.59   1.64   1.62   1.56   1.60   1.64   1.61   79.99
1517.30   1383.80   39.99   28.93   1.71   1.61   1.68   1.63   1.58   1.62   1.64   1.60   79.99
1517.40   1383.89   33.27   8.20   1.70   1.59   1.67   1.63   1.59   1.64   1.65   1.61   79.99
1517.50   1383.97   35.20   13.73   1.58   1.52   1.63   1.60   1.62   1.66   1.64   1.60   79.99
1517.60   1384.06   37.94   14.76   1.57   1.51   1.62   1.58   1.59   1.64   1.64   1.61   79.99
1517.70   1384.15   41.73   17.07   1.56   1.48   1.62   1.57   1.56   1.61   1.63   1.59   79.99
1517.80   1384.24   37.22   23.08   1.60   1.52   1.62   1.58   1.54   1.58   1.63   1.60   79.99
1517.90   1384.32   31.89   25.08   1.61   1.53   1.62   1.58   1.54   1.58   1.63   1.60   79.99
1518.00   1384.41   32.65   39.73   1.53   1.45   1.59   1.55   1.53   1.58   1.63   1.60   79.99
1518.10   1384.50   29.14   14.39   1.42   1.37   1.54   1.50   1.51   1.57   1.63   1.59   79.99
1518.20   1384.58   36.69   20.68   1.40   1.35   1.53   1.49   1.49   1.56   1.63   1.59   79.99
1518.30   1384.67   34.73   24.81   1.40   1.35   1.52   1.49   1.48   1.55   1.63   1.59   79.99
1518.40   1384.76   35.92   24.66   1.43   1.39   1.54   1.50   1.49   1.55   1.62   1.58   79.99
1518.50   1384.84   38.73   10.66   1.53   1.47   1.58   1.55   1.52   1.56   1.62   1.58   79.99
1518.60   1384.93   37.14   13.02   1.60   1.56   1.62   1.59   1.54   1.57   1.61   1.59   79.99
1518.70   1385.02   37.83   14.30   1.69   1.61   1.65   1.62   1.54   1.58   1.61   1.58   79.99
1518.80   1385.11   30.91   16.96   1.72   1.62   1.67   1.63   1.55   1.60   1.61   1.57   79.99
1518.90   1385.19   34.30   18.02   1.69   1.59   1.66   1.62   1.58   1.62   1.61   1.58   79.99
1519.00   1385.28   36.21   16.37   1.61   1.53   1.62   1.58   1.59   1.63   1.61   1.57   79.99
1519.10   1385.37   34.42   13.63   1.51   1.46   1.57   1.55   1.57   1.60   1.60   1.57   79.99
1519.20   1385.45   38.96   23.90   1.44   1.41   1.54   1.51   1.54   1.57   1.59   1.56   79.99
1519.30   1385.54   41.26   27.17   1.45   1.40   1.53   1.51   1.51   1.55   1.59   1.55   79.99
1519.40   1385.63   36.50   17.84   1.48   1.44   1.53   1.51   1.47   1.50   1.58   1.54   79.99
1519.50   1385.71   41.33   20.64   1.54   1.47   1.55   1.52   1.45   1.49   1.58   1.55   79.99
1519.60   1385.80   39.28   20.35   1.56   1.46   1.57   1.52   1.44   1.49   1.58   1.53   79.99
1519.70   1385.89   41.06   15.45   1.55   1.46   1.56   1.52   1.47   1.51   1.58   1.54   79.99
1519.80   1385.97   33.64   9.24   1.49   1.43   1.54   1.50   1.50   1.54   1.58   1.54   79.99
1519.90   1386.06   35.32   10.70   1.44   1.39   1.51   1.48   1.49   1.54   1.58   1.54   79.99
1520.00   1386.15   34.34   10.48   1.40   1.37   1.50   1.47   1.48   1.52   1.57   1.53   79.99
1520.10   1386.24   33.04   12.27   1.40   1.36   1.50   1.46   1.47   1.51   1.57   1.53   79.99
1520.20   1386.32   34.17   17.07   1.41   1.37   1.50   1.47   1.47   1.51   1.57   1.53   79.99
1520.30   1386.41   35.30   19.96   1.45   1.40   1.50   1.49   1.45   1.50   1.57   1.53   79.99
1520.40   1386.50   36.43   17.19   1.48   1.43   1.53   1.50   1.44   1.48   1.56   1.53   79.99
1520.50   1386.58   37.33   13.60   1.57   1.43   1.55   1.52   1.46   1.50   1.56   1.54   79.99
1520.60   1386.67   38.04   33.48   1.51   1.47   1.54   1.52   1.47   1.52   1.57   1.54   79.99
1520.70   1386.76   35.76   26.88   1.50   1.47   1.54   1.52   1.49   1.52   1.57   1.53   79.99
1520.80   1386.84   39.25   19.72   1.53   1.50   1.55   1.53   1.49   1.52   1.56   1.53   79.99
1520.90   1386.93   35.77   12.75   1.60   1.55   1.57   1.55   1.48   1.51   1.57   1.53   79.99
1521.00   1387.02   39.22   13.17   1.62   1.56   1.59   1.57   1.48   1.52   1.57   1.53   79.99
1521.10   1387.11   37.97   14.66   1.63   1.56   1.59   1.57   1.50   1.55   1.58   1.54   79.99
1521.20   1387.19   37.82   13.98   1.58   1.50   1.58   1.54   1.51   1.56   1.58   1.53   79.99
