~Version Information Section
VERS.           2.0     :   CWLS log ASCII Standard -VERSION 2.0
WRAP.           NO      :   One line per depth step
#
~Well Information Section
#MNEM.UNIT     VALUE/NAME     DESCRIPTION
#--------     ------------     -----------------
STRT.M                        840.30                     : START DEPTH
STOP.M                        2267.00                    : STOP DEPTH
STEP.M                        0.100                      : STEP
STRT_TVD.M                    797.19                     : START TVD
STOP_TVD.M                    2013.28                    : STOP TVD
DEPTH_SCALE.                  MD (meters)                : DEPTH SCALE
NULL.                         -999.25                    : NULL VALUE
DATE.                         2014-12-22                 : DATE
JOBN.                         ORYX_DD11                  : JOB NUMBER
UWI.                          DD 11                      : UNIQUE WELL ID
API.                          DD 11                      : API NUMBER
COMP.                         ORYX Petroleum LTD.        : COMPANY
WELL.                         Damir Dagh-11              : WELL
FLD.                          Hawler                     : FIELD
LOC.                          Damir Dagh                 : LOCATION
CNTY.                         Erbil                      : COUNTY
STAT.                         Kurdistan                  : STATE
PROV.                         Kurdistan                  : PROVINCE
CTRY.                         Iraq                       : COUNTRY
well_Location.                Damir Dagh                 : WELL LOCATION
well_Latitude.                N36 12 11.328              : WELL LATITUDE
well_Longitude.               E43 43 57.3742             : WELL LONGITUDE
well_Section.                                            : SECTION
well_Township.                                           : TOWNSHIP
well_Range.                                              : RANGE
well_Datum.                   MSL                        : PERMANENT DEPTH DATUM
well_Elevation.               0                          : PERMANENT DEPTH ELEVATION
well_KBElevation.             456.3                      : KELLY BUSHING ELEVATION
well_DFElevation.             456.3                      : DRILL FLOOR ELEVATION
well_groundElevation.          450.8                      : GROUND/SEA FLOOR ELEVATION
MDF.                          KELLY BUSHING              : MWD DEPTH MEASURED FROM
surveySection_dTimStart.          25-Nov-2014                : MWD Start Date
surveySection_mdStart.          50                         : MWD Start Depth
surveySection_dTimEnd.                                     : MWD End Date
surveySection_mdEnd.                                     : MWD End Depth
wellbore_mdCurrent.           0.0                        : Total Depth
OS1.                          Downhole Vibration         : Other Services 1
OS2.                          DH Temp.                   : Other Services 2
OS3.                                                     : Other Services 3
OS4.                                                     : Other Services 4
nameOperator.                 EDC                        : Drilling Contractor
nameRig.                      EDC-22                     : Rig Name
typeRig.                      Land Rig                   : Rig Type
OCN1.                         Richard hesse              : Oil Company Name 1
OCN2.                         George Bagheri             : Oil Company Name 2
OCN3.                                                    : Oil Company Name 3
OCN4.                                                    : Oil Company Name 4
nameDirectionalCompany.          OilServ                    : Directional Company Name
DCN1.                         Graham Chalmers            : Directional Company Name 1
DCN2.                         Omid Mcaryan               : Directional Company Name 2
DCN3.                                                    : Directional Company Name 3
DCN4.                                                    : Directional Company Name 4
SRVC.                         OilServ                    : SERVICE COMPANY
SCN1.                         Eugene Kravtsov            : Service Company Name 1
SCN2.                         Astak George               : Service Company Name 2
SCN3.                         Waqas Ahmad Tehami         : Service Company Name 3
SCN4.                         RE'al                      : Service Company Name 4
dTimCreation.                 2014/12/22                 : DATE FILE CREATED
#
~Curve Information Section
#MNEM.UNIT         API CODE       Curve Description       
#----------        -----------    -------------------------------
DEPTH.M                       :  1       DEPTH
TVD.M                         :  2       TRUE VERTICAL DEPTH
GRCM.API/sec        :  3 GAMMA RAY BOREHOLE CORRECTED
ROP.m/hr        :  4 RATE OF PENETRATION
RPCECHM.ohm-m        :  5 RESISTIVITY PHASE DIFF. 2 MHZ LONG SPACING
RPCECSHM.ohm-m        :  6 RESISTIVITY PHASE DIFF. 2 MHZ SHORT SPACING
RPCECLM.ohm-m        :  7 RESISTIVITY PHASE DIFF. 400 KHZ LONG SPACING
RPCECSLM.ohm-m        :  8 RESISTIVITY PHASE DIFF. 400 KHZ SHORT SPACING
RACECSHM.ohm-m        :  9 RESISTIVITY ATTEN. 2 MHZ SHORT SPACING
RACECHM.ohm-m        :  10 RESISTIVITY ATTEN. 2 MHZ LONG SPACING
RACECLM.ohm-m        :  11 RESISTIVITY ATTEN. 400 KHZ LONG SPACING
RACECSLM.ohm-m        :  12 RESISTIVITY ATTEN. 400 KHZ SHORT SPACING
TRM.Celsius        :  13 RESISTIVITY COMPENSATION TEMPERATURE
~A
# ...
2073.90   1856.73   35.11   7.26   21.67   19.01   23.55   20.68   19.86   22.69   61.72   28.17   60.99
2074.00   1856.81   36.38   7.26   22.76   19.77   24.38   21.25   20.77   23.49   61.72   29.01   60.99
2074.10   1856.89   32.41   7.43   24.19   20.68   25.40   22.06   21.49   24.22   61.72   28.52   60.99
2074.20   1856.97   31.14   6.90   26.27   22.93   27.19   24.18   22.58   25.21   61.72   29.35   60.99
2074.30   1857.05   25.49   7.70   28.68   25.54   29.00   26.38   23.70   26.09   61.72   30.54   60.99
2074.40   1857.13   29.03   8.23   31.14   28.24   31.00   28.56   24.92   26.99   61.72   30.64   60.99
2074.50   1857.21   30.85   10.42   34.10   31.08   33.02   31.24   26.00   28.18   61.72   30.93   60.99
2074.60   1857.29   32.27   8.95   36.97   33.78   35.12   33.06   27.51   29.22   61.72   31.69   60.99
2074.70   1857.37   30.28   7.81   39.58   36.13   37.30   35.04   28.63   30.39   61.72   31.69   60.99
2074.80   1857.45   31.44   8.11   43.44   39.66   40.02   38.64   29.86   31.72   61.72   31.69   60.99
2074.90   1857.54   33.25   8.64   47.51   44.90   43.08   42.55   30.99   33.12   61.72   31.69   60.99
2075.00   1857.62   24.15   6.80   52.07   49.18   45.92   46.21   33.15   34.45   61.72   31.69   60.99
2075.10   1857.70   29.28   17.71   55.31   53.43   48.30   50.62   34.45   35.70   61.72   31.69   60.99
2075.20   1857.78   24.67   13.95   57.86   56.98   50.87   52.37   36.42   36.65   61.72   31.69   60.99
2075.30   1857.86   23.29   10.36   61.00   59.08   53.25   54.58   36.94   37.83   61.72   31.69   60.99
2075.40   1857.94   24.95   4.34   63.46   61.43   54.90   56.34   38.58   39.48   61.72   31.69   60.99
2075.50   1858.02   17.41   5.95   66.40   63.99   57.13   60.04   39.54   41.09   61.72   31.69   60.99
2075.60   1858.10   14.43   9.85   67.19   66.06   58.74   59.75   41.76   42.60   61.72   31.69   60.99
2075.70   1858.18   17.56   6.95   67.70   66.80   59.74   61.00   42.99   43.59   61.72   31.69   60.99
2075.80   1858.26   19.88   4.29   68.01   65.86   60.09   60.76   43.72   44.61   61.72   31.68   60.99
2075.90   1858.34   22.02   6.15   67.86   65.01   59.88   62.39   43.75   45.81   61.72   31.68   60.99
2076.00   1858.43   21.12   6.88   65.89   62.92   59.87   59.16   45.41   46.31   61.72   31.68   61.41
2076.10   1858.51   23.47   12.14   64.20   59.52   57.96   58.41   45.28   47.79   61.72   31.68   60.99
2076.20   1858.59   22.37   8.49   61.25   57.00   56.71   54.98   45.15   47.47   61.72   31.68   62.00
2076.30   1858.67   21.59   5.39   58.50   52.75   55.43   50.96   45.67   47.57   61.72   31.68   62.00
2076.40   1858.75   19.31   4.46   54.84   46.86   52.46   47.53   42.85   48.39   61.72   31.68   62.00
2076.50   1858.83   22.27   11.40   53.84   46.92   52.57   47.92   41.99   48.46   61.72   31.68   62.00
2076.60   1858.91   18.32   1.91   54.53   48.70   53.92   48.53   44.21   49.03   61.72   31.68   62.00
2076.70   1858.99   17.00   13.49   53.85   48.84   53.77   48.74   45.61   49.60   61.72   31.68   62.00
2076.80   1859.07   17.71   10.26   53.57   47.71   53.32   49.07   44.72   50.07   61.72   31.68   62.00
2076.90   1859.15   19.12   10.92   54.33   48.49   53.58   50.30   43.90   50.87   61.72   31.68   62.00
2077.00   1859.24   21.35   14.63   53.04   48.44   53.45   48.74   45.11   50.29   61.72   31.68   62.00
2077.10   1859.32   21.76   13.76   50.95   45.17   51.79   45.80   45.15   50.96   61.72   31.68   62.00
2077.20   1859.40   20.31   11.14   49.45   43.26   51.36   44.91   43.57   50.41   61.72   31.68   62.00
2077.30   1859.48   21.95   13.93   49.11   42.78   50.73   44.62   43.36   50.63   61.72   31.68   62.00
2077.40   1859.56   23.17   10.70   48.43   42.52   50.28   44.52   43.58   50.93   61.72   31.68   62.00
2077.50   1859.64   22.88   12.93   47.63   41.49   49.75   44.51   43.44   51.00   61.72   31.68   62.00
2077.60   1859.72   19.92   11.51   46.68   41.00   49.38   43.20   43.99   50.20   61.72   31.68   62.00
2077.70   1859.80   21.20   12.45   46.64   40.69   49.17   42.84   43.91   50.49   61.72   31.68   62.00
2077.80   1859.88   20.71   9.56   46.48   40.18   48.83   43.31   43.19   50.68   61.72   31.68   62.00
2077.90   1859.96   23.17   12.64   46.11   41.07   49.14   43.67   43.82   50.16   61.73   31.68   62.00
2078.00   1860.05   26.17   11.00   46.94   42.01   50.03   43.80   45.46   50.10   61.73   31.68   62.00
2078.10   1860.13   27.19   9.85   46.77   40.91   49.63   43.68   45.55   51.29   61.73   31.68   62.00
2078.20   1860.21   23.25   6.59   45.28   39.66   48.80   42.14   47.13   51.86   61.73   31.68   62.00
2078.30   1860.29   23.63   3.62   44.51   38.36   48.05   41.11   46.82   52.32   61.73   31.68   62.00
2078.40   1860.37   34.41   5.36   44.45   38.64   48.18   41.63   46.74   51.77   61.73   31.68   62.00
2078.50   1860.45   40.17   4.34   46.53   41.63   49.78   44.33   46.04   50.52   61.73   31.68   62.00
2078.60   1860.53   39.37   7.99   49.16   44.70   51.92   46.92   45.27   49.82   61.73   31.68   62.00
2078.70   1860.61   31.18   6.52   51.44   47.46   53.68   49.46   44.91   50.56   61.73   31.68   62.00
2078.80   1860.69   22.98   6.26   52.94   50.23   55.43   51.31   45.87   50.84   61.73   31.68   62.00
2078.90   1860.77   15.71   8.15   53.89   49.90   55.53   52.49   44.52   51.28   61.73   31.68   62.00
2079.00   1860.86   14.82   6.68   53.52   48.61   56.10   50.46   44.90   50.57   61.73   31.68   62.00
2079.10   1860.94   14.42   9.62   52.83   48.13   55.50   49.83   43.80   50.57   61.73   31.68   62.00
2079.20   1861.02   16.82   7.35   52.27   47.02   54.67   49.62   43.61   51.04   61.73   31.68   62.00
2079.30   1861.10   15.03   4.27   51.45   46.87   54.37   49.39   44.33   51.53   61.73   31.68   62.00
2079.40   1861.18   15.38   11.73   51.09   45.57   54.11   48.79   44.78   51.90   61.73   31.68   62.00
2079.50   1861.26   15.67   9.22   50.76   45.35   53.66   47.78   45.73   52.42   61.73   31.68   62.00
2079.60   1861.34   13.52   8.75   50.27   45.27   53.42   48.01   45.30   52.10   61.73   31.68   62.00
2079.70   1861.42   12.83   8.65   50.06   45.37   53.50   47.34   46.40   51.82   61.73   31.68   62.00
2079.80   1861.50   15.09   7.08   49.99   44.48   53.01   46.43   46.70   52.87   61.73   31.68   62.00
2079.90   1861.58   16.84   7.15   49.59   42.85   53.03   45.69   45.81   52.93   61.73   31.68   62.00
2080.00   1861.66   16.45   7.37   48.88   42.27   52.60   45.13   46.14   53.26   61.73   31.68   62.00
2080.10   1861.75   16.71   10.27   48.33   41.21   52.16   44.18   45.46   53.69   61.73   31.68   62.00
2080.20   1861.83   16.11   12.00   48.10   40.95   52.14   44.03   46.29   54.15   61.73   31.68   62.00
2080.30   1861.91   15.10   7.53   48.60   41.26   52.24   44.24   47.65   54.83   61.73   31.68   62.00
2080.40   1861.99   20.19   11.85   49.42   41.86   53.20   45.27   46.88   55.35   61.73   31.68   62.00
2080.50   1862.07   19.79   9.13   50.53   43.21   53.93   46.28   47.92   56.58   61.73   31.68   62.00
2080.60   1862.15   18.33   10.56   51.82   45.27   55.73   48.14   49.00   56.71   61.73   31.68   62.00
2080.70   1862.23   19.31   9.78   53.51   46.39   57.08   50.54   48.11   57.93   61.73   31.68   62.00
2080.80   1862.31   18.68   23.46   54.22   47.21   58.10   49.99   49.10   58.59   61.73   31.68   62.00
2080.90   1862.39   19.73   44.57   55.54   48.88   58.52   51.47   50.27   59.30   61.73   31.68   62.00
2081.00   1862.47   17.82   22.85   56.89   49.28   60.15   52.31   49.87   59.49   61.73   31.68   62.00
2081.10   1862.56   19.96   7.33   58.51   50.65   61.39   53.29   50.84   60.67   61.73   31.68   62.00
2081.20   1862.64   19.14   8.06   60.04   52.07   62.63   54.22   52.62   62.41   61.73   31.68   62.00
2081.30   1862.72   19.27   7.60   61.82   53.94   64.43   56.07   54.36   62.70   61.73   31.68   62.00
2081.40   1862.80   20.99   8.36   64.31   56.46   66.77   59.85   55.16   64.13   61.73   31.68   62.00
