~Version Information Section
VERS.           2.0     :   CWLS log ASCII Standard -VERSION 2.0
WRAP.           NO      :   One line per depth step
#
~Well Information Section
#MNEM.UNIT     VALUE/NAME     DESCRIPTION
#--------     ------------     -----------------
STRT.M                        840.30                     : START DEPTH
STOP.M                        2267.00                    : STOP DEPTH
STEP.M                        0.100                      : STEP
STRT_TVD.M                    797.19                     : START TVD
STOP_TVD.M                    2013.28                    : STOP TVD
DEPTH_SCALE.                  MD (meters)                : DEPTH SCALE
NULL.                         -999.25                    : NULL VALUE
DATE.                         2014-12-22                 : DATE
JOBN.                         ORYX_DD11                  : JOB NUMBER
UWI.                          DD 11                      : UNIQUE WELL ID
API.                          DD 11                      : API NUMBER
COMP.                         ORYX Petroleum LTD.        : COMPANY
WELL.                         Damir Dagh-11              : WELL
FLD.                          Hawler                     : FIELD
LOC.                          Damir Dagh                 : LOCATION
CNTY.                         Erbil                      : COUNTY
STAT.                         Kurdistan                  : STATE
PROV.                         Kurdistan                  : PROVINCE
CTRY.                         Iraq                       : COUNTRY
well_Location.                Damir Dagh                 : WELL LOCATION
well_Latitude.                N36 12 11.328              : WELL LATITUDE
well_Longitude.               E43 43 57.3742             : WELL LONGITUDE
well_Section.                                            : SECTION
well_Township.                                           : TOWNSHIP
well_Range.                                              : RANGE
well_Datum.                   MSL                        : PERMANENT DEPTH DATUM
well_Elevation.               0                          : PERMANENT DEPTH ELEVATION
well_KBElevation.             456.3                      : KELLY BUSHING ELEVATION
well_DFElevation.             456.3                      : DRILL FLOOR ELEVATION
well_groundElevation.          450.8                      : GROUND/SEA FLOOR ELEVATION
MDF.                          KELLY BUSHING              : MWD DEPTH MEASURED FROM
surveySection_dTimStart.          25-Nov-2014                : MWD Start Date
surveySection_mdStart.          50                         : MWD Start Depth
surveySection_dTimEnd.                                     : MWD End Date
surveySection_mdEnd.                                     : MWD End Depth
wellbore_mdCurrent.           0.0                        : Total Depth
OS1.                          Downhole Vibration         : Other Services 1
OS2.                          DH Temp.                   : Other Services 2
OS3.                                                     : Other Services 3
OS4.                                                     : Other Services 4
nameOperator.                 EDC                        : Drilling Contractor
nameRig.                      EDC-22                     : Rig Name
typeRig.                      Land Rig                   : Rig Type
OCN1.                         Richard hesse              : Oil Company Name 1
OCN2.                         George Bagheri             : Oil Company Name 2
OCN3.                                                    : Oil Company Name 3
OCN4.                                                    : Oil Company Name 4
nameDirectionalCompany.          OilServ                    : Directional Company Name
DCN1.                         Graham Chalmers            : Directional Company Name 1
DCN2.                         Omid Mcaryan               : Directional Company Name 2
DCN3.                                                    : Directional Company Name 3
DCN4.                                                    : Directional Company Name 4
SRVC.                         OilServ                    : SERVICE COMPANY
SCN1.                         Eugene Kravtsov            : Service Company Name 1
SCN2.                         Astak George               : Service Company Name 2
SCN3.                         Waqas Ahmad Tehami         : Service Company Name 3
SCN4.                         RE'al                      : Service Company Name 4
dTimCreation.                 2014/12/22                 : DATE FILE CREATED
#
~Curve Information Section
#MNEM.UNIT         API CODE       Curve Description       
#----------        -----------    -------------------------------
DEPTH.M                       :  1       DEPTH
TVD.M                         :  2       TRUE VERTICAL DEPTH
GRCM.API/sec        :  3 GAMMA RAY BOREHOLE CORRECTED
ROP.m/hr        :  4 RATE OF PENETRATION
RPCECHM.ohm-m        :  5 RESISTIVITY PHASE DIFF. 2 MHZ LONG SPACING
RPCECSHM.ohm-m        :  6 RESISTIVITY PHASE DIFF. 2 MHZ SHORT SPACING
RPCECLM.ohm-m        :  7 RESISTIVITY PHASE DIFF. 400 KHZ LONG SPACING
RPCECSLM.ohm-m        :  8 RESISTIVITY PHASE DIFF. 400 KHZ SHORT SPACING
RACECSHM.ohm-m        :  9 RESISTIVITY ATTEN. 2 MHZ SHORT SPACING
RACECHM.ohm-m        :  10 RESISTIVITY ATTEN. 2 MHZ LONG SPACING
RACECLM.ohm-m        :  11 RESISTIVITY ATTEN. 400 KHZ LONG SPACING
RACECSLM.ohm-m        :  12 RESISTIVITY ATTEN. 400 KHZ SHORT SPACING
TRM.Celsius        :  13 RESISTIVITY COMPENSATION TEMPERATURE
~A
# ...
1603.50   1459.15   37.64   9.52   2.09   1.99   2.14   2.13   2.12   2.18   2.15   2.11   74.00
1603.60   1459.23   36.78   11.69   1.92   1.85   2.05   2.02   2.02   2.09   2.13   2.07   74.00
1603.70   1459.32   36.42   14.27   1.83   1.76   1.98   1.93   1.92   2.00   2.10   2.04   74.00
1603.80   1459.41   35.56   7.71   1.77   1.70   1.92   1.87   1.84   1.93   2.09   2.00   74.00
1603.90   1459.50   37.01   8.17   1.74   1.67   1.88   1.82   1.79   1.89   2.07   1.96   74.00
1604.00   1459.59   37.23   7.34   1.73   1.67   1.86   1.80   1.75   1.86   2.05   1.95   74.00
1604.10   1459.67   34.60   7.68   1.74   1.66   1.85   1.78   1.71   1.84   2.04   1.92   74.00
1604.20   1459.76   34.53   9.98   1.77   1.68   1.85   1.78   1.70   1.83   2.04   1.91   74.00
1604.30   1459.85   32.65   8.22   1.78   1.71   1.86   1.78   1.70   1.82   2.04   1.91   74.00
1604.40   1459.94   33.82   9.13   1.81   1.73   1.87   1.80   1.72   1.83   2.04   1.92   74.00
1604.50   1460.02   34.96   10.00   1.80   1.73   1.87   1.81   1.74   1.85   2.05   1.94   74.00
1604.60   1460.11   37.17   9.50   1.78   1.73   1.88   1.82   1.78   1.86   2.06   1.95   74.00
1604.70   1460.20   37.56   10.95   1.77   1.75   1.89   1.85   1.81   1.90   2.07   1.98   74.00
1604.80   1460.29   36.86   8.25   1.82   1.79   1.93   1.89   1.85   1.93   2.08   2.00   74.00
1604.90   1460.37   42.06   8.21   1.89   1.86   1.98   1.95   1.90   1.97   2.10   2.03   74.00
1605.00   1460.46   41.95   8.61   2.05   2.00   2.09   2.05   1.96   2.02   2.12   2.06   74.00
1605.10   1460.55   41.29   12.49   2.22   2.15   2.19   2.16   2.01   2.07   2.15   2.11   74.00
1605.20   1460.64   36.14   9.89   2.36   2.26   2.29   2.26   2.08   2.14   2.18   2.15   74.00
1605.30   1460.73   43.95   9.40   2.45   2.38   2.36   2.34   2.22   2.25   2.21   2.20   74.00
1605.40   1460.81   40.67   10.24   2.47   2.39   2.40   2.39   2.29   2.30   2.23   2.21   74.00
1605.50   1460.90   41.97   9.91   2.52   2.47   2.45   2.46   2.37   2.36   2.24   2.24   74.00
1605.60   1460.99   47.50   7.75   2.60   2.54   2.49   2.52   2.37   2.38   2.26   2.26   74.00
1605.70   1461.08   42.40   7.49   2.70   2.63   2.53   2.58   2.40   2.40   2.27   2.29   74.00
1605.80   1461.16   44.81   8.89   2.75   2.67   2.55   2.60   2.43   2.42   2.27   2.30   74.00
1605.90   1461.25   38.31   10.74   2.76   2.68   2.55   2.59   2.41   2.41   2.27   2.29   74.00
1606.00   1461.34   44.52   7.88   2.74   2.64   2.55   2.56   2.39   2.40   2.27   2.28   74.00
1606.10   1461.43   43.53   8.77   2.69   2.54   2.52   2.49   2.38   2.40   2.27   2.27   74.00
1606.20   1461.51   41.92   8.48   2.50   2.39   2.42   2.40   2.33   2.37   2.26   2.25   74.00
1606.30   1461.60   40.31   8.23   2.27   2.17   2.31   2.25   2.26   2.31   2.25   2.20   74.00
1606.40   1461.69   38.76   9.12   2.07   2.02   2.18   2.13   2.17   2.24   2.23   2.17   74.00
1606.50   1461.78   43.44   6.69   1.93   1.89   2.08   2.03   2.06   2.15   2.21   2.14   74.00
1606.60   1461.87   46.16   9.79   1.86   1.81   2.03   1.97   2.00   2.08   2.19   2.11   74.00
1606.70   1461.95   41.62   9.47   1.79   1.74   1.98   1.91   1.92   2.01   2.17   2.06   74.00
1606.80   1462.04   41.37   8.26   1.77   1.71   1.93   1.86   1.86   1.96   2.15   2.05   74.00
1606.90   1462.13   37.84   7.70   1.76   1.68   1.91   1.85   1.82   1.93   2.14   2.03   74.00
1607.00   1462.22   39.11   8.45   1.76   1.69   1.90   1.83   1.81   1.92   2.14   2.03   74.00
1607.10   1462.30   41.15   7.87   1.79   1.71   1.91   1.84   1.80   1.91   2.13   2.01   74.00
1607.20   1462.39   42.13   8.21   1.83   1.74   1.93   1.86   1.80   1.91   2.14   2.02   74.00
1607.30   1462.48   42.66   7.11   1.86   1.80   1.98   1.91   1.85   1.95   2.14   2.01   73.00
1607.40   1462.57   38.97   7.65   1.93   1.86   2.02   1.94   1.88   1.98   2.15   2.02   73.00
1607.50   1462.65   39.78   9.59   1.97   1.92   2.06   1.98   1.94   2.02   2.16   2.05   73.00
1607.60   1462.74   34.53   8.68   2.08   2.02   2.12   2.05   1.98   2.07   2.19   2.10   73.00
1607.70   1462.83   36.27   7.93   2.28   2.14   2.22   2.15   2.03   2.12   2.23   2.16   73.00
1607.80   1462.92   36.32   10.77   2.29   2.14   2.29   2.21   2.11   2.20   2.25   2.19   73.00
1607.90   1463.00   37.54   11.79   2.28   2.11   2.29   2.23   2.18   2.27   2.28   2.21   74.00
1608.00   1463.09   37.90   10.35   2.18   2.11   2.31   2.24   2.29   2.33   2.30   2.26   74.00
1608.10   1463.18   39.28   12.60   2.18   2.10   2.31   2.25   2.29   2.34   2.30   2.26   74.00
1608.20   1463.27   44.65   13.19   2.19   2.08   2.31   2.25   2.29   2.35   2.31   2.26   74.00
1608.30   1463.36   37.44   8.41   2.20   2.08   2.32   2.26   2.30   2.36   2.31   2.26   74.00
1608.40   1463.44   42.50   10.04   2.19   2.14   2.32   2.28   2.34   2.39   2.32   2.31   74.00
1608.50   1463.53   42.54   10.55   2.23   2.15   2.37   2.34   2.35   2.40   2.34   2.31   74.00
1608.60   1463.62   40.88   7.80   2.35   2.28   2.44   2.41   2.39   2.44   2.35   2.33   74.00
1608.70   1463.71   37.30   7.94   2.55   2.48   2.54   2.53   2.41   2.44   2.36   2.35   74.00
1608.80   1463.79   34.78   8.75   2.93   2.82   2.70   2.70   2.44   2.47   2.39   2.41   74.00
1608.90   1463.88   38.15   8.54   3.16   3.04   2.80   2.80   2.52   2.51   2.40   2.39   74.00
1609.00   1463.97   42.35   6.26   3.29   3.11   2.83   2.87   2.55   2.57   2.40   2.41   74.00
1609.10   1464.06   41.41   7.88   3.12   2.94   2.75   2.78   2.54   2.57   2.40   2.38   74.00
1609.20   1464.14   33.44   6.65   2.96   2.86   2.69   2.68   2.53   2.55   2.40   2.38   74.00
1609.30   1464.23   33.00   10.08   2.65   2.53   2.55   2.52   2.45   2.50   2.40   2.35   74.00
1609.40   1464.32   38.40   9.99   2.33   2.30   2.39   2.35   2.37   2.43   2.39   2.35   74.00
1609.50   1464.41   31.70   8.87   2.15   2.11   2.26   2.24   2.28   2.34   2.38   2.32   74.00
1609.60   1464.49   27.34   10.54   2.03   1.97   2.18   2.13   2.17   2.25   2.37   2.26   74.00
1609.70   1464.58   32.38   11.39   1.95   1.88   2.12   2.06   2.06   2.17   2.36   2.22   74.00
1609.80   1464.67   27.49   8.03   1.90   1.81   2.08   1.99   1.98   2.12   2.36   2.20   74.00
1609.90   1464.76   32.59   8.69   1.89   1.75   2.07   1.94   1.93   2.08   2.37   2.17   74.00
1610.00   1464.84   36.99   7.84   1.89   1.75   2.06   1.93   1.90   2.07   2.38   2.19   74.00
1610.10   1464.93   26.63   8.51   1.89   1.75   2.07   1.92   1.89   2.08   2.40   2.20   74.00
1610.20   1465.02   29.41   9.24   1.89   1.77   2.09   1.94   1.92   2.10   2.43   2.21   74.00
1610.30   1465.11   31.29   11.21   1.90   1.82   2.12   1.99   1.98   2.15   2.47   2.26   74.00
1610.40   1465.19   33.26   8.27   2.01   1.94   2.22   2.11   2.11   2.26   2.55   2.34   74.00
1610.50   1465.28   31.29   7.81   2.03   1.97   2.23   2.14   2.13   2.27   2.56   2.37   74.00
1610.60   1465.37   34.30   8.23   2.11   2.04   2.31   2.21   2.20   2.35   2.61   2.42   74.00
1610.70   1465.46   33.06   2.67   2.33   2.24   2.46   2.36   2.27   2.43   2.68   2.51   74.00
1610.80   1465.54   35.16   0.43   2.72   2.58   2.71   2.61   2.41   2.56   2.76   2.62   73.85
1610.90   1465.63   30.65   9.09   3.22   3.04   2.98   2.92   2.56   2.71   2.83   2.71   73.00
1611.00   1465.72   33.38   7.60   3.70   3.55   3.25   3.22   2.71   2.84   2.91   2.79   73.00
1611.10   1465.81   31.57   8.19   4.26   4.13   3.56   3.59   2.98   3.07   3.01   2.92   73.00
1611.20   1465.89   35.61   7.16   4.66   4.56   3.84   3.93   3.30   3.35   3.14   3.08   73.00
1611.30   1465.98   31.33   13.54   4.74   4.64   4.00   4.10   3.54   3.58   3.25   3.22   73.00
1611.40   1466.07   32.65   6.16   4.69   4.57   4.08   4.17   3.69   3.74   3.36   3.35   73.00
1611.50   1466.16   32.51   1.06   4.60   4.46   4.14   4.20   3.83   3.88   3.46   3.45   73.00
1611.60   1466.24   31.25   3.10   4.53   4.41   4.19   4.26   3.97   4.01   3.56   3.58   73.00
1611.70   1466.33   37.84   5.14   4.56   4.44   4.28   4.38   4.12   4.11   3.66   3.69   73.00
